{"bus_stops":[{"UPD_DATE":null,"JIGYOSHA_NAME":"西鉄バス","TEI_KANA":"よしづかにちょうめ","UD_TYPE":"0","CITY_NAME":"福岡市博多区","TEI_CD":"590390","JIGYOSHA_CD":"0001","TEI_NAME":"吉塚二丁目","TEI_NAME_FOREIGN":"吉塚二丁目","TEI_TYPE":"0","CITY_CD":"401323","AREA_TYPE":"fukuoka","LATITUDE":"33.60495279449010","LONGITUDE":"130.425557922687","NORIBA_CD":null,"COMMUNITY_TYPE":"0","NAVI_TYPE":"1","ROUTE_NUMBERS":["31","36","34"]},{"UPD_DATE":null,"JIGYOSHA_NAME":"西鉄バス","TEI_KANA":"かしいだいごちょうめ","UD_TYPE":"0","CITY_NAME":"福岡市東区","TEI_CD":"661218","JIGYOSHA_CD":"0001","TEI_NAME":"香椎台五丁目","TEI_NAME_FOREIGN":"香椎台五丁目","TEI_TYPE":"0","CITY_CD":"401315","AREA_TYPE":"fukuoka","LATITUDE":"33.65386215113320","LONGITUDE":"130.459221874810","NORIBA_CD":null,"COMMUNITY_TYPE":"0","NAVI_TYPE":"1","ROUTE_NUMBERS":["27N"]},{"UPD_DATE":null,"JIGYOSHA_NAME":"西鉄バス","TEI_KANA":"にゅーたうんだいに","UD_TYPE":"0","CITY_NAME":"福岡県筑紫野市","TEI_CD":"772220","JIGYOSHA_CD":"0001","TEI_NAME":"ニュータウン第二","TEI_NAME_FOREIGN":"ニュータウン第二","TEI_TYPE":"0","CITY_CD":"402176","AREA_TYPE":"fukuoka","LATITUDE":"33.44581696670420","LONGITUDE":"130.548699023618","NORIBA_CD":null,"COMMUNITY_TYPE":"0","NAVI_TYPE":"1","ROUTE_NUMBERS":["17"]},{"UPD_DATE":null,"JIGYOSHA_NAME":"西鉄バス","TEI_KANA":"たたらせ","UD_TYPE":"0","CITY_NAME":"福岡市早良区","TEI_CD":"700910","JIGYOSHA_CD":"0001","TEI_NAME":"多々良瀬","TEI_NAME_FOREIGN":"多々良瀬","TEI_TYPE":"0","CITY_CD":"401374","AREA_TYPE":"fukuoka","LATITUDE":"33.49024339341490","LONGITUDE":"130.329924146980","NORIBA_CD":null,"COMMUNITY_TYPE":"0","NAVI_TYPE":"1","ROUTE_NUMBERS":["3"]},{"UPD_DATE":null,"JIGYOSHA_NAME":"西鉄バス","TEI_KANA":"おにのきだんち","UD_TYPE":"0","CITY_NAME":"福岡市城南区","TEI_CD":"551710","JIGYOSHA_CD":"0001","TEI_NAME":"鬼ノ木団地","TEI_NAME_FOREIGN":"鬼ノ木団地","TEI_TYPE":"0","CITY_CD":"401366","AREA_TYPE":"fukuoka","LATITUDE":"33.53919219607390","LONGITUDE":"130.389363956625","NORIBA_CD":null,"COMMUNITY_TYPE":"0","NAVI_TYPE":"1","ROUTE_NUMBERS":["6","12"]},{"UPD_DATE":null,"JIGYOSHA_NAME":"西鉄バス","TEI_KANA":"じょうなんくやくしょきたぐち","UD_TYPE":"0","CITY_NAME":"福岡市城南区","TEI_CD":"562100","JIGYOSHA_CD":"0001","TEI_NAME":"城南区役所北口","TEI_NAME_FOREIGN":"城南区役所北口","TEI_TYPE":"0","CITY_CD":"401366","AREA_TYPE":"fukuoka","LATITUDE":"33.57617792906440","LONGITUDE":"130.371559732177","NORIBA_CD":null,"COMMUNITY_TYPE":"0","NAVI_TYPE":"1","ROUTE_NUMBERS":["6","7","11"]},{"UPD_DATE":null,"JIGYOSHA_NAME":"西鉄バス","TEI_KANA":"つつじがおかどおり","UD_TYPE":"0","CITY_NAME":"福岡県太宰府市","TEI_CD":"770930","JIGYOSHA_CD":"0001","TEI_NAME":"つつじケ丘通り","TEI_NAME_FOREIGN":"つつじケ丘通り","TEI_TYPE":"0","CITY_CD":"402214","AREA_TYPE":"fukuoka","LATITUDE":"33.49870518731230","LONGITUDE":"130.484439924947","NORIBA_CD":null,"COMMUNITY_TYPE":"0","NAVI_TYPE":"1","ROUTE_NUMBERS":["23"]},{"UPD_DATE":null,"JIGYOSHA_NAME":"西鉄バス","TEI_KANA":"ななくまよつかど","UD_TYPE":"0","CITY_NAME":"福岡市城南区","TEI_CD":"610550","JIGYOSHA_CD":"0001","TEI_NAME":"七隈四角","TEI_NAME_FOREIGN":"七隈四角","TEI_TYPE":"0","CITY_CD":"401366","AREA_TYPE":"fukuoka","LATITUDE":"33.55284125262610","LONGITUDE":"130.361681627123","NORIBA_CD":null,"COMMUNITY_TYPE":"0","NAVI_TYPE":"1","ROUTE_NUMBERS":["95","114","140","3"]},{"UPD_DATE":null,"JIGYOSHA_NAME":"西鉄バス","TEI_KANA":"よこてしょうがっこうまえ","UD_TYPE":"0","CITY_NAME":"福岡市南区","TEI_CD":"571740","JIGYOSHA_CD":"0001","TEI_NAME":"横手小学校前","TEI_NAME_FOREIGN":"横手小学校前","TEI_TYPE":"0","CITY_CD":"401340","AREA_TYPE":"fukuoka","LATITUDE":"33.54858599995140","LONGITUDE":"130.435658679336","NORIBA_CD":null,"COMMUNITY_TYPE":"0","NAVI_TYPE":"1","ROUTE_NUMBERS":["外環"]},{"UPD_DATE":null,"JIGYOSHA_NAME":"西鉄バス","TEI_KANA":"にしふくおかちゅうがっこうひがしぐち","UD_TYPE":"0","CITY_NAME":"福岡市早良区","TEI_CD":"560280","JIGYOSHA_CD":"0001","TEI_NAME":"西福岡中学校東口","TEI_NAME_FOREIGN":"西福岡中学校東口","TEI_TYPE":"0","CITY_CD":"401374","AREA_TYPE":"fukuoka","LATITUDE":"33.56579140321660","LONGITUDE":"130.335103238121","NORIBA_CD":null,"COMMUNITY_TYPE":"0","NAVI_TYPE":"1","ROUTE_NUMBERS":["2","8","203","2-3"]},{"UPD_DATE":null,"JIGYOSHA_NAME":"西鉄バス","TEI_KANA":"ししぶえきひがしぐち","UD_TYPE":"0","CITY_NAME":"福岡県古賀市","TEI_CD":"632651","JIGYOSHA_CD":"0001","TEI_NAME":"ししぶ駅東口","TEI_NAME_FOREIGN":"ししぶ駅東口","TEI_TYPE":"0","CITY_CD":"402231","AREA_TYPE":"fukuoka","LATITUDE":"33.72151489956280","LONGITUDE":"130.458340832790","NORIBA_CD":null,"COMMUNITY_TYPE":"0","NAVI_TYPE":"1","ROUTE_NUMBERS":["6"]},{"UPD_DATE":null,"JIGYOSHA_NAME":"西鉄バス","TEI_KANA":"ひらのはいつしょうてんがいまえ","UD_TYPE":"0","CITY_NAME":"福岡県大野城市","TEI_CD":"770800","JIGYOSHA_CD":"0001","TEI_NAME":"平野ハイツ商店街前","TEI_NAME_FOREIGN":"平野ハイツ商店街前","TEI_TYPE":"0","CITY_CD":"402192","AREA_TYPE":"fukuoka","LATITUDE":"33.49531526732280","LONGITUDE":"130.468262424569","NORIBA_CD":null,"COMMUNITY_TYPE":"0","NAVI_TYPE":"1","ROUTE_NUMBERS":["20","21","23","42"]},{"UPD_DATE":null,"JIGYOSHA_NAME":"西鉄バス","TEI_KANA":"みなみしょうさんちょうめ","UD_TYPE":"0","CITY_NAME":"福岡市早良区","TEI_CD":"560310","JIGYOSHA_CD":"0001","TEI_NAME":"南庄三丁目","TEI_NAME_FOREIGN":"南庄三丁目","TEI_TYPE":"0","CITY_CD":"401374","AREA_TYPE":"fukuoka","LATITUDE":"33.57247073285230","LONGITUDE":"130.337625721070","NORIBA_CD":null,"COMMUNITY_TYPE":"0","NAVI_TYPE":"1","ROUTE_NUMBERS":["202"]},{"UPD_DATE":null,"JIGYOSHA_NAME":"西鉄バス","TEI_KANA":"さんじょうだいまえ","UD_TYPE":"0","CITY_NAME":"福岡県太宰府市","TEI_CD":"770110","JIGYOSHA_CD":"0001","TEI_NAME":"三条台前","TEI_NAME_FOREIGN":"三条台前","TEI_TYPE":"0","CITY_CD":"402214","AREA_TYPE":"fukuoka","LATITUDE":"33.52767498975960","LONGITUDE":"130.536026306780","NORIBA_CD":null,"COMMUNITY_TYPE":"0","NAVI_TYPE":"1","ROUTE_NUMBERS":["4-1"]},{"UPD_DATE":null,"JIGYOSHA_NAME":"西鉄バス","TEI_KANA":"ゆたかいっちょうめ","UD_TYPE":"0","CITY_NAME":"福岡市博多区","TEI_CD":"591860","JIGYOSHA_CD":"0001","TEI_NAME":"豊一丁目","TEI_NAME_FOREIGN":"豊一丁目","TEI_TYPE":"0","CITY_CD":"401323","AREA_TYPE":"fukuoka","LATITUDE":"33.59867956271650","LONGITUDE":"130.431124749229","NORIBA_CD":null,"COMMUNITY_TYPE":"0","NAVI_TYPE":"1","ROUTE_NUMBERS":["30","32","39","39B","33","37","73","139"]},{"UPD_DATE":null,"JIGYOSHA_NAME":"西鉄バス","TEI_KANA":"かとうこみせんまえ","UD_TYPE":"0","CITY_NAME":"福岡県宗像市","TEI_CD":"640370","JIGYOSHA_CD":"0001","TEI_NAME":"河東コミセン前","TEI_NAME_FOREIGN":"河東コミセン前","TEI_TYPE":"0","CITY_CD":"402206","AREA_TYPE":"fukuoka","LATITUDE":"33.80944429169390","LONGITUDE":"130.561225239471","NORIBA_CD":null,"COMMUNITY_TYPE":"0","NAVI_TYPE":"1","ROUTE_NUMBERS":["3","26A","1","26"]},{"UPD_DATE":null,"JIGYOSHA_NAME":"西鉄バス","TEI_KANA":"ふくしこうえんまえ","UD_TYPE":"0","CITY_NAME":"福岡県志免町","TEI_CD":"594030","JIGYOSHA_CD":"0001","TEI_NAME":"福祉公園前","TEI_NAME_FOREIGN":"福祉公園前","TEI_TYPE":"0","CITY_CD":"403431","AREA_TYPE":"fukuoka","LATITUDE":"33.58583864583760","LONGITUDE":"130.471751966458","NORIBA_CD":null,"COMMUNITY_TYPE":"0","NAVI_TYPE":"1","ROUTE_NUMBERS":["3"]},{"UPD_DATE":null,"JIGYOSHA_NAME":"西鉄バス","TEI_KANA":"おかもと　かすがし","UD_TYPE":"0","CITY_NAME":"福岡県春日市","TEI_CD":"585465","JIGYOSHA_CD":"0001","TEI_NAME":"岡本（春日市）","TEI_NAME_FOREIGN":"岡本（春日市）","TEI_TYPE":"0","CITY_CD":"402184","AREA_TYPE":"fukuoka","LATITUDE":"33.54032316011910","LONGITUDE":"130.451480745805","NORIBA_CD":null,"COMMUNITY_TYPE":"0","NAVI_TYPE":"1","ROUTE_NUMBERS":["45-1"]},{"UPD_DATE":null,"JIGYOSHA_NAME":"西鉄バス","TEI_KANA":"こくぶんじいりぐち　まほろば","UD_TYPE":"0","CITY_NAME":"福岡県太宰府市","TEI_CD":"770035","JIGYOSHA_CD":"0001","TEI_NAME":"国分寺入口（まほろば）","TEI_NAME_FOREIGN":"国分寺入口（まほろば）","TEI_TYPE":"0","CITY_CD":"402214","AREA_TYPE":"fukuoka","LATITUDE":"33.51985719680650","LONGITUDE":"130.500007658080","NORIBA_CD":null,"COMMUNITY_TYPE":"1","NAVI_TYPE":"1","ROUTE_NUMBERS":["3","4"]},{"UPD_DATE":null,"JIGYOSHA_NAME":"西鉄バス","TEI_KANA":"なじまうんどうこうえんまえ","UD_TYPE":"0","CITY_NAME":"福岡市東区","TEI_CD":"681125","JIGYOSHA_CD":"0001","TEI_NAME":"名島運動公園前","TEI_NAME_FOREIGN":"名島運動公園前","TEI_TYPE":"0","CITY_CD":"401315","AREA_TYPE":"fukuoka","LATITUDE":"33.64462053078750","LONGITUDE":"130.424366195089","NORIBA_CD":null,"COMMUNITY_TYPE":"0","NAVI_TYPE":"1","ROUTE_NUMBERS":["22-1","22N","220","22T","29N","27N"]},{"UPD_DATE":null,"JIGYOSHA_NAME":"西鉄バス","TEI_KANA":"ながおへんでんしょ","UD_TYPE":"0","CITY_NAME":"福岡市城南区","TEI_CD":"553030","JIGYOSHA_CD":"0001","TEI_NAME":"長尾変電所","TEI_NAME_FOREIGN":"長尾変電所","TEI_TYPE":"0","CITY_CD":"401366","AREA_TYPE":"fukuoka","LATITUDE":"33.55321766116790","LONGITUDE":"130.387375475939","NORIBA_CD":null,"COMMUNITY_TYPE":"0","NAVI_TYPE":"1","ROUTE_NUMBERS":["64","96"]},{"UPD_DATE":null,"JIGYOSHA_NAME":"西鉄バス","TEI_KANA":"ともおかさんちょうめ","UD_TYPE":"0","CITY_NAME":"福岡市城南区","TEI_CD":"610075","JIGYOSHA_CD":"0001","TEI_NAME":"友丘三丁目","TEI_NAME_FOREIGN":"友丘三丁目","TEI_TYPE":"0","CITY_CD":"401366","AREA_TYPE":"fukuoka","LATITUDE":"33.55698036865940","LONGITUDE":"130.375080992191","NORIBA_CD":null,"COMMUNITY_TYPE":"0","NAVI_TYPE":"1","ROUTE_NUMBERS":["12"]},{"UPD_DATE":null,"JIGYOSHA_NAME":"西鉄バス","TEI_KANA":"ひがしひらお","UD_TYPE":"0","CITY_NAME":"福岡市博多区","TEI_CD":"591690","JIGYOSHA_CD":"0001","TEI_NAME":"東平尾","TEI_NAME_FOREIGN":"東平尾","TEI_TYPE":"0","CITY_CD":"401323","AREA_TYPE":"fukuoka","LATITUDE":"33.58783613828480","LONGITUDE":"130.454926271839","NORIBA_CD":null,"COMMUNITY_TYPE":"0","NAVI_TYPE":"1","ROUTE_NUMBERS":["1","3","43","37","37-1","38","39","139"]},{"UPD_DATE":null,"JIGYOSHA_NAME":"西鉄バス","TEI_KANA":"にしじんよんちょうめ","UD_TYPE":"0","CITY_NAME":"福岡市早良区","TEI_CD":"720110","JIGYOSHA_CD":"0001","TEI_NAME":"西新四丁目","TEI_NAME_FOREIGN":"西新四丁目","TEI_TYPE":"0","CITY_CD":"401374","AREA_TYPE":"fukuoka","LATITUDE":"33.5829946519761150","LONGITUDE":"130.36005825441398","NORIBA_CD":null,"COMMUNITY_TYPE":"0","NAVI_TYPE":"1","ROUTE_NUMBERS":["6","9","15","10","54-1","94","96"]},{"UPD_DATE":null,"JIGYOSHA_NAME":null,"TEI_KANA":"めいのはま（ゆうびんきょくがわ）","UD_TYPE":"0","CITY_NAME":"福岡市西区","TEI_CD":"D10042","JIGYOSHA_CD":"0000","TEI_NAME":"姪浜（郵便局側）","TEI_NAME_FOREIGN":"姪浜（郵便局側）","TEI_TYPE":"2","CITY_CD":"401358","AREA_TYPE":"fukuoka","LATITUDE":"33.58756991809950","LONGITUDE":"130.326190975447","NORIBA_CD":null,"COMMUNITY_TYPE":"0","NAVI_TYPE":"1","ROUTE_NUMBERS":["1","1-5","98"]},{"UPD_DATE":null,"JIGYOSHA_NAME":"西鉄バス","TEI_KANA":"ごりょう","UD_TYPE":"0","CITY_NAME":"福岡県春日市","TEI_CD":"585410","JIGYOSHA_CD":"0001","TEI_NAME":"御陵","TEI_NAME_FOREIGN":"御陵","TEI_TYPE":"0","CITY_CD":"402184","AREA_TYPE":"fukuoka","LATITUDE":"33.54379564729320","LONGITUDE":"130.443385258231","NORIBA_CD":null,"COMMUNITY_TYPE":"0","NAVI_TYPE":"1","ROUTE_NUMBERS":["42","45","46"]},{"UPD_DATE":null,"JIGYOSHA_NAME":"西鉄バス","TEI_KANA":"あらえだんち","UD_TYPE":"0","CITY_NAME":"福岡市城南区","TEI_CD":"562010","JIGYOSHA_CD":"0001","TEI_NAME":"荒江団地","TEI_NAME_FOREIGN":"荒江団地","TEI_TYPE":"0","CITY_CD":"401366","AREA_TYPE":"fukuoka","LATITUDE":"33.57142324301030","LONGITUDE":"130.360417876436","NORIBA_CD":null,"COMMUNITY_TYPE":"0","NAVI_TYPE":"1","ROUTE_NUMBERS":["17","19","214","95","200","201","202","203","204","208","205","206"]},{"UPD_DATE":null,"JIGYOSHA_NAME":"西鉄バス","TEI_KANA":"さんじょうだいいりぐち　まほろば","UD_TYPE":"0","CITY_NAME":"福岡県太宰府市","TEI_CD":"770111","JIGYOSHA_CD":"0001","TEI_NAME":"三条台入口（まほろば）","TEI_NAME_FOREIGN":"三条台入口（まほろば）","TEI_TYPE":"0","CITY_CD":"402214","AREA_TYPE":"fukuoka","LATITUDE":"33.52789996185380","LONGITUDE":"130.535806314691","NORIBA_CD":null,"COMMUNITY_TYPE":"1","NAVI_TYPE":"1","ROUTE_NUMBERS":["5"]},{"UPD_DATE":null,"JIGYOSHA_NAME":"西鉄バス","TEI_KANA":"よこてよんちょうめにし","UD_TYPE":"0","CITY_NAME":"福岡市南区","TEI_CD":"571730","JIGYOSHA_CD":"0001","TEI_NAME":"横手四丁目西","TEI_NAME_FOREIGN":"横手四丁目西","TEI_TYPE":"0","CITY_CD":"401340","AREA_TYPE":"fukuoka","LATITUDE":"33.54928090517080","LONGITUDE":"130.434487744583","NORIBA_CD":null,"COMMUNITY_TYPE":"0","NAVI_TYPE":"1","ROUTE_NUMBERS":["外環"]},{"UPD_DATE":null,"JIGYOSHA_NAME":"西鉄バス","TEI_KANA":"はる","UD_TYPE":"0","CITY_NAME":"福岡県大野城市","TEI_CD":"770900","JIGYOSHA_CD":"0001","TEI_NAME":"原","TEI_NAME_FOREIGN":"原","TEI_TYPE":"0","CITY_CD":"402192","AREA_TYPE":"fukuoka","LATITUDE":"33.49474844128730","LONGITUDE":"130.474750911806","NORIBA_CD":null,"COMMUNITY_TYPE":"0","NAVI_TYPE":"1","ROUTE_NUMBERS":["23"]},{"UPD_DATE":null,"JIGYOSHA_NAME":"西鉄バス","TEI_KANA":"しもたかばみち","UD_TYPE":"0","CITY_NAME":"福岡県筑前町","TEI_CD":"620320","JIGYOSHA_CD":"0001","TEI_NAME":"下高場道","TEI_NAME_FOREIGN":"下高場道","TEI_TYPE":"0","CITY_CD":"404471","AREA_TYPE":"fukuoka","LATITUDE":"33.45032559662870","LONGITUDE":"130.612370528149","NORIBA_CD":null,"COMMUNITY_TYPE":"0","NAVI_TYPE":"1","ROUTE_NUMBERS":["40","41","400"]},{"UPD_DATE":null,"JIGYOSHA_NAME":"西鉄バス","TEI_KANA":"さぶろうまる","UD_TYPE":"0","CITY_NAME":"福岡県宗像市","TEI_CD":"640410","JIGYOSHA_CD":"0001","TEI_NAME":"三郎丸","TEI_NAME_FOREIGN":"三郎丸","TEI_TYPE":"0","CITY_CD":"402206","AREA_TYPE":"fukuoka","LATITUDE":"33.80818869654040","LONGITUDE":"130.576714010959","NORIBA_CD":null,"COMMUNITY_TYPE":"0","NAVI_TYPE":"1","ROUTE_NUMBERS":["3","26A","1","75","26"]},{"UPD_DATE":null,"JIGYOSHA_NAME":"西鉄バス","TEI_KANA":"のためしょうがっこうまえ","UD_TYPE":"0","CITY_NAME":"福岡市南区","TEI_CD":"571322","JIGYOSHA_CD":"0001","TEI_NAME":"野多目小学校前","TEI_NAME_FOREIGN":"野多目小学校前","TEI_TYPE":"0","CITY_CD":"401340","AREA_TYPE":"fukuoka","LATITUDE":"33.54195551691060","LONGITUDE":"130.424652898668","NORIBA_CD":null,"COMMUNITY_TYPE":"0","NAVI_TYPE":"1","ROUTE_NUMBERS":["48","48-2","外環"]},{"UPD_DATE":null,"JIGYOSHA_NAME":"西鉄バス","TEI_KANA":"うめおおじ　まほろば","UD_TYPE":"0","CITY_NAME":"福岡県太宰府市","TEI_CD":"770075","JIGYOSHA_CD":"0001","TEI_NAME":"梅大路（まほろば）","TEI_NAME_FOREIGN":"梅大路（まほろば）","TEI_TYPE":"0","CITY_CD":"402214","AREA_TYPE":"fukuoka","LATITUDE":"33.51580114720050","LONGITUDE":"130.529580388859","NORIBA_CD":null,"COMMUNITY_TYPE":"1","NAVI_TYPE":"1","ROUTE_NUMBERS":["5"]},{"UPD_DATE":null,"JIGYOSHA_NAME":"西鉄バス","TEI_KANA":"しんしょうじいっちょうめ","UD_TYPE":"0","CITY_NAME":"福岡市城南区","TEI_CD":"619020","JIGYOSHA_CD":"0001","TEI_NAME":"神松寺一丁目","TEI_NAME_FOREIGN":"神松寺一丁目","TEI_TYPE":"0","CITY_CD":"401366","AREA_TYPE":"fukuoka","LATITUDE":"33.55824594659810","LONGITUDE":"130.377257084726","NORIBA_CD":null,"COMMUNITY_TYPE":"0","NAVI_TYPE":"1","ROUTE_NUMBERS":["94"]},{"UPD_DATE":null,"JIGYOSHA_NAME":"西鉄バス","TEI_KANA":"みやぞの","UD_TYPE":"0","CITY_NAME":"福岡市博多区","TEI_CD":"580610","JIGYOSHA_CD":"0001","TEI_NAME":"宮園","TEI_NAME_FOREIGN":"宮園","TEI_TYPE":"0","CITY_CD":"401323","AREA_TYPE":"fukuoka","LATITUDE":"33.57284644379360","LONGITUDE":"130.437877377961","NORIBA_CD":null,"COMMUNITY_TYPE":"0","NAVI_TYPE":"1","ROUTE_NUMBERS":["40","44","45"]},{"UPD_DATE":null,"JIGYOSHA_NAME":"西鉄バス","TEI_KANA":"こくら","UD_TYPE":"0","CITY_NAME":"福岡県春日市","TEI_CD":"581350","JIGYOSHA_CD":"0001","TEI_NAME":"小倉","TEI_NAME_FOREIGN":"小倉","TEI_TYPE":"0","CITY_CD":"402184","AREA_TYPE":"fukuoka","LATITUDE":"33.53131318535370","LONGITUDE":"130.455002868176","NORIBA_CD":null,"COMMUNITY_TYPE":"0","NAVI_TYPE":"1","ROUTE_NUMBERS":["45","45-1"]},{"UPD_DATE":null,"JIGYOSHA_NAME":"西鉄バス","TEI_KANA":"ちとせまちにちょうめ","UD_TYPE":"0","CITY_NAME":"福岡県春日市","TEI_CD":"771250","JIGYOSHA_CD":"0001","TEI_NAME":"千歳町二丁目","TEI_NAME_FOREIGN":"千歳町二丁目","TEI_TYPE":"0","CITY_CD":"402184","AREA_TYPE":"fukuoka","LATITUDE":"33.53385211481830","LONGITUDE":"130.466511795460","NORIBA_CD":null,"COMMUNITY_TYPE":"0","NAVI_TYPE":"1","ROUTE_NUMBERS":["1","2","6"]},{"UPD_DATE":null,"JIGYOSHA_NAME":"西鉄バス","TEI_KANA":"つぼみ","UD_TYPE":"0","CITY_NAME":"福岡県粕屋町","TEI_CD":"600630","JIGYOSHA_CD":"0001","TEI_NAME":"坪見","TEI_NAME_FOREIGN":"坪見","TEI_TYPE":"0","CITY_CD":"403491","AREA_TYPE":"fukuoka","LATITUDE":"33.62144268419320","LONGITUDE":"130.462969056421","NORIBA_CD":null,"COMMUNITY_TYPE":"0","NAVI_TYPE":"1","ROUTE_NUMBERS":["74"]},{"UPD_DATE":null,"JIGYOSHA_NAME":"西鉄バス","TEI_KANA":"あさくらそうごうちょうしゃいりぐち","UD_TYPE":"0","CITY_NAME":"福岡県朝倉市","TEI_CD":"620450","JIGYOSHA_CD":"0001","TEI_NAME":"朝倉総合庁舎入口","TEI_NAME_FOREIGN":"朝倉総合庁舎入口","TEI_TYPE":"0","CITY_CD":"402281","AREA_TYPE":"fukuoka","LATITUDE":"33.42415414083220","LONGITUDE":"130.655015191659","NORIBA_CD":null,"COMMUNITY_TYPE":"0","NAVI_TYPE":"1","ROUTE_NUMBERS":["40","41","400"]},{"UPD_DATE":null,"JIGYOSHA_NAME":"西鉄バス","TEI_KANA":"りーぱすぷらざまえ","UD_TYPE":"0","CITY_NAME":"福岡県古賀市","TEI_CD":"661170","JIGYOSHA_CD":"0001","TEI_NAME":"リーパスプラザ前","TEI_NAME_FOREIGN":"リーパスプラザ前","TEI_TYPE":"0","CITY_CD":"402231","AREA_TYPE":"fukuoka","LATITUDE":"33.73308587204680","LONGITUDE":"130.470370300948","NORIBA_CD":null,"COMMUNITY_TYPE":"0","NAVI_TYPE":"1","ROUTE_NUMBERS":["6"]},{"UPD_DATE":null,"JIGYOSHA_NAME":"西鉄バス","TEI_KANA":"かきのうち","UD_TYPE":"0","CITY_NAME":"福岡市西区","TEI_CD":"560065","JIGYOSHA_CD":"0001","TEI_NAME":"柿ノ内","TEI_NAME_FOREIGN":"柿ノ内","TEI_TYPE":"0","CITY_CD":"401358","AREA_TYPE":"fukuoka","LATITUDE":"33.55791483316210","LONGITUDE":"130.311485562238","NORIBA_CD":null,"COMMUNITY_TYPE":"0","NAVI_TYPE":"1","ROUTE_NUMBERS":["1","204","505"]},{"UPD_DATE":null,"JIGYOSHA_NAME":"西鉄バス","TEI_KANA":"こたべにちょうめ","UD_TYPE":"0","CITY_NAME":"福岡市早良区","TEI_CD":"560255","JIGYOSHA_CD":"0001","TEI_NAME":"小田部二丁目","TEI_NAME_FOREIGN":"小田部二丁目","TEI_TYPE":"0","CITY_CD":"401374","AREA_TYPE":"fukuoka","LATITUDE":"33.56831810188550","LONGITUDE":"130.333324269517","NORIBA_CD":null,"COMMUNITY_TYPE":"0","NAVI_TYPE":"1","ROUTE_NUMBERS":["8","105","204","205","206","214"]},{"UPD_DATE":null,"JIGYOSHA_NAME":"西鉄バス","TEI_KANA":"みどりがおかちゅうおうこうえんまえ","UD_TYPE":"0","CITY_NAME":"福岡市東区","TEI_CD":"600459","JIGYOSHA_CD":"0001","TEI_NAME":"みどりが丘中央公園前","TEI_NAME_FOREIGN":"みどりが丘中央公園前","TEI_TYPE":"0","CITY_CD":"401315","AREA_TYPE":"fukuoka","LATITUDE":"33.64709607718430","LONGITUDE":"130.470806224296","NORIBA_CD":null,"COMMUNITY_TYPE":"0","NAVI_TYPE":"1","ROUTE_NUMBERS":["27","27B","27N","72C","78","79"]},{"UPD_DATE":null,"JIGYOSHA_NAME":"西鉄バス","TEI_KANA":"ひよしいっちょうめ","UD_TYPE":"0","CITY_NAME":"福岡県古賀市","TEI_CD":"660508","JIGYOSHA_CD":"0001","TEI_NAME":"日吉一丁目","TEI_NAME_FOREIGN":"日吉一丁目","TEI_TYPE":"0","CITY_CD":"402231","AREA_TYPE":"fukuoka","LATITUDE":"33.72759730951620","LONGITUDE":"130.461806264914","NORIBA_CD":null,"COMMUNITY_TYPE":"0","NAVI_TYPE":"1","ROUTE_NUMBERS":["1","2","2-1"]},{"UPD_DATE":null,"JIGYOSHA_NAME":"西鉄バス","TEI_KANA":"ひのさとはっちょうめ","UD_TYPE":"0","CITY_NAME":"福岡県宗像市","TEI_CD":"643770","JIGYOSHA_CD":"0001","TEI_NAME":"日の里八丁目","TEI_NAME_FOREIGN":"日の里八丁目","TEI_TYPE":"0","CITY_CD":"402206","AREA_TYPE":"fukuoka","LATITUDE":"33.78595029958460","LONGITUDE":"130.532311722534","NORIBA_CD":null,"COMMUNITY_TYPE":"0","NAVI_TYPE":"1","ROUTE_NUMBERS":["15","16"]},{"UPD_DATE":null,"JIGYOSHA_NAME":"西鉄バス","TEI_KANA":"つきのうらだんちいりぐち","UD_TYPE":"0","CITY_NAME":"福岡県大野城市","TEI_CD":"770811","JIGYOSHA_CD":"0001","TEI_NAME":"月の浦団地入口","TEI_NAME_FOREIGN":"月の浦団地入口","TEI_TYPE":"0","CITY_CD":"402192","AREA_TYPE":"fukuoka","LATITUDE":"33.49789187271290","LONGITUDE":"130.461448871784","NORIBA_CD":null,"COMMUNITY_TYPE":"0","NAVI_TYPE":"1","ROUTE_NUMBERS":["20","21","23"]},{"UPD_DATE":null,"JIGYOSHA_NAME":null,"TEI_KANA":"しみずまち（おおはしほうめん）","UD_TYPE":"0","CITY_NAME":"福岡市南区","TEI_CD":"D11115","JIGYOSHA_CD":"0000","TEI_NAME":"清水町（大橋方面）","TEI_NAME_FOREIGN":"清水町（大橋方面）","TEI_TYPE":"2","CITY_CD":"401340","AREA_TYPE":"fukuoka","LATITUDE":"33.5682112230000060","LONGITUDE":"130.41870321099998","NORIBA_CD":null,"COMMUNITY_TYPE":"0","NAVI_TYPE":"1","ROUTE_NUMBERS":["6","60","区1","区2"]},{"UPD_DATE":null,"JIGYOSHA_NAME":"西鉄バス","TEI_KANA":"しもばる","UD_TYPE":"0","CITY_NAME":"福岡市東区","TEI_CD":"660050","JIGYOSHA_CD":"0001","TEI_NAME":"下原","TEI_NAME_FOREIGN":"下原","TEI_TYPE":"0","CITY_CD":"401315","AREA_TYPE":"fukuoka","LATITUDE":"33.67331100528890","LONGITUDE":"130.455467291068","NORIBA_CD":null,"COMMUNITY_TYPE":"0","NAVI_TYPE":"1","ROUTE_NUMBERS":["23","23B"]},{"UPD_DATE":null,"JIGYOSHA_NAME":"西鉄バス","TEI_KANA":"やなぎばし","UD_TYPE":"0","CITY_NAME":"福岡市中央区","TEI_CD":"720260","JIGYOSHA_CD":"0001","TEI_NAME":"柳橋","TEI_NAME_FOREIGN":"柳橋","TEI_TYPE":"0","CITY_CD":"401331","AREA_TYPE":"fukuoka","LATITUDE":"33.582654882168","LONGITUDE":"130.408536363059","NORIBA_CD":null,"COMMUNITY_TYPE":"0","NAVI_TYPE":"1","ROUTE_NUMBERS":["9","11","15","16","17","19","50","58","65","214","10","88","58-1"]},{"UPD_DATE":null,"JIGYOSHA_NAME":"西鉄バス","TEI_KANA":"おおつかだんちまえ","UD_TYPE":"0","CITY_NAME":"福岡県古賀市","TEI_CD":"660165","JIGYOSHA_CD":"0001","TEI_NAME":"大塚団地前","TEI_NAME_FOREIGN":"大塚団地前","TEI_TYPE":"0","CITY_CD":"402231","AREA_TYPE":"fukuoka","LATITUDE":"33.71264753090980","LONGITUDE":"130.497435994286","NORIBA_CD":null,"COMMUNITY_TYPE":"0","NAVI_TYPE":"1","ROUTE_NUMBERS":["1"]},{"UPD_DATE":null,"JIGYOSHA_NAME":"西鉄バス","TEI_KANA":"ながたにばし","UD_TYPE":"0","CITY_NAME":"福岡県久山町","TEI_CD":"600460","JIGYOSHA_CD":"0001","TEI_NAME":"長谷橋","TEI_NAME_FOREIGN":"長谷橋","TEI_TYPE":"0","CITY_CD":"403482","AREA_TYPE":"fukuoka","LATITUDE":"33.65004291893620","LONGITUDE":"130.48059294183602","NORIBA_CD":null,"COMMUNITY_TYPE":"0","NAVI_TYPE":"1","ROUTE_NUMBERS":["27B","77"]},{"UPD_DATE":null,"JIGYOSHA_NAME":"西鉄バス","TEI_KANA":"かとうしょうがっこう","UD_TYPE":"0","CITY_NAME":"福岡県宗像市","TEI_CD":"643830","JIGYOSHA_CD":"0001","TEI_NAME":"河東小学校","TEI_NAME_FOREIGN":"河東小学校","TEI_TYPE":"0","CITY_CD":"402206","AREA_TYPE":"fukuoka","LATITUDE":"33.81340480229550","LONGITUDE":"130.557459369855","NORIBA_CD":null,"COMMUNITY_TYPE":"0","NAVI_TYPE":"1","ROUTE_NUMBERS":["3"]},{"UPD_DATE":null,"JIGYOSHA_NAME":null,"TEI_KANA":"いじりむつかど","UD_TYPE":"0","CITY_NAME":"福岡市南区","TEI_CD":"D10039","JIGYOSHA_CD":"0000","TEI_NAME":"井尻六ツ角","TEI_NAME_FOREIGN":"井尻六ツ角","TEI_TYPE":"2","CITY_CD":"401340","AREA_TYPE":"fukuoka","LATITUDE":"33.54936403399760","LONGITUDE":"130.442372085968","NORIBA_CD":null,"COMMUNITY_TYPE":"0","NAVI_TYPE":"1","ROUTE_NUMBERS":["45","45-1","46-1"]},{"UPD_DATE":null,"JIGYOSHA_NAME":"西鉄バス","TEI_KANA":"じょうのはるだんち","UD_TYPE":"0","CITY_NAME":"福岡市西区","TEI_CD":"563118","JIGYOSHA_CD":"0001","TEI_NAME":"城の原団地","TEI_NAME_FOREIGN":"城の原団地","TEI_TYPE":"0","CITY_CD":"401358","AREA_TYPE":"fukuoka","LATITUDE":"33.57404104300950","LONGITUDE":"130.307748130069","NORIBA_CD":null,"COMMUNITY_TYPE":"0","NAVI_TYPE":"1","ROUTE_NUMBERS":["1-7"]},{"UPD_DATE":null,"JIGYOSHA_NAME":"西鉄バス","TEI_KANA":"やまとまち","UD_TYPE":"0","CITY_NAME":"福岡県福津市","TEI_CD":"641575","JIGYOSHA_CD":"0001","TEI_NAME":"大和町","TEI_NAME_FOREIGN":"大和町","TEI_TYPE":"0","CITY_CD":"402249","AREA_TYPE":"fukuoka","LATITUDE":"33.76582861124950","LONGITUDE":"130.484189645568","NORIBA_CD":null,"COMMUNITY_TYPE":"0","NAVI_TYPE":"1","ROUTE_NUMBERS":["1-1"]},{"UPD_DATE":null,"JIGYOSHA_NAME":"西鉄バス","TEI_KANA":"ささおか","UD_TYPE":"0","CITY_NAME":"福岡市中央区","TEI_CD":"610690","JIGYOSHA_CD":"0001","TEI_NAME":"笹丘","TEI_NAME_FOREIGN":"笹丘","TEI_TYPE":"0","CITY_CD":"401331","AREA_TYPE":"fukuoka","LATITUDE":"33.56669604966190","LONGITUDE":"130.377651662857","NORIBA_CD":null,"COMMUNITY_TYPE":"0","NAVI_TYPE":"1","ROUTE_NUMBERS":["13","16","54","96","113"]},{"UPD_DATE":null,"JIGYOSHA_NAME":"西鉄バス","TEI_KANA":"しぜんこうえんまえ","UD_TYPE":"0","CITY_NAME":"福岡市南区","TEI_CD":"554050","JIGYOSHA_CD":"0001","TEI_NAME":"自然公園前","TEI_NAME_FOREIGN":"自然公園前","TEI_TYPE":"0","CITY_CD":"401340","AREA_TYPE":"fukuoka","LATITUDE":"33.52166710319190","LONGITUDE":"130.391231608492","NORIBA_CD":null,"COMMUNITY_TYPE":"0","NAVI_TYPE":"1","ROUTE_NUMBERS":["51","52","56","57","57-1","59","67","151","152","区1"]},{"UPD_DATE":null,"JIGYOSHA_NAME":null,"TEI_KANA":"てんじんちゅうおうゆうびんきょくまえ（にしむき）","UD_TYPE":"0","CITY_NAME":"福岡市中央区","TEI_CD":"D11123","JIGYOSHA_CD":"0000","TEI_NAME":"天神中央郵便局前（１６：西向き）","TEI_NAME_FOREIGN":"天神中央郵便局前（１６：西向き）","TEI_TYPE":"2","CITY_CD":"401331","AREA_TYPE":"fukuoka","LATITUDE":"33.592524680710","LONGITUDE":"130.400190601694","NORIBA_CD":"0001","COMMUNITY_TYPE":"0","NAVI_TYPE":"1","ROUTE_NUMBERS":["4","22","22-1","22B","22N","23","23-1","23B","27","27B","28B","32","34","310","31"]},{"UPD_DATE":null,"JIGYOSHA_NAME":"西鉄バス","TEI_KANA":"がっこうまえ","UD_TYPE":"0","CITY_NAME":"福岡県筑紫野市","TEI_CD":"772210","JIGYOSHA_CD":"0001","TEI_NAME":"学校前","TEI_NAME_FOREIGN":"学校前","TEI_TYPE":"0","CITY_CD":"402176","AREA_TYPE":"fukuoka","LATITUDE":"33.444895010999","LONGITUDE":"130.545589324329","NORIBA_CD":null,"COMMUNITY_TYPE":"0","NAVI_TYPE":"1","ROUTE_NUMBERS":["17"]},{"UPD_DATE":null,"JIGYOSHA_NAME":"西鉄バス","TEI_KANA":"たかすまだんち","UD_TYPE":"0","CITY_NAME":"福岡市東区","TEI_CD":"600091","JIGYOSHA_CD":"0001","TEI_NAME":"高須磨団地","TEI_NAME_FOREIGN":"高須磨団地","TEI_TYPE":"0","CITY_CD":"401315","AREA_TYPE":"fukuoka","LATITUDE":"33.63815923635860","LONGITUDE":"130.425194423827","NORIBA_CD":null,"COMMUNITY_TYPE":"0","NAVI_TYPE":"1","ROUTE_NUMBERS":["4","21","22","23","27","29","4-3","26"]},{"UPD_DATE":null,"JIGYOSHA_NAME":"西鉄バス","TEI_KANA":"つきぐまだんち","UD_TYPE":"0","CITY_NAME":"福岡市博多区","TEI_CD":"591630","JIGYOSHA_CD":"0001","TEI_NAME":"月隈団地","TEI_NAME_FOREIGN":"月隈団地","TEI_TYPE":"0","CITY_CD":"401323","AREA_TYPE":"fukuoka","LATITUDE":"33.57945234579750","LONGITUDE":"130.472718180283","NORIBA_CD":null,"COMMUNITY_TYPE":"0","NAVI_TYPE":"1","ROUTE_NUMBERS":["1","37","37-1","38","39","39B","139","370","390"]},{"UPD_DATE":null,"JIGYOSHA_NAME":"西鉄バス","TEI_KANA":"なご","UD_TYPE":"0","CITY_NAME":"福岡市東区","TEI_CD":"600455","JIGYOSHA_CD":"0001","TEI_NAME":"名子","TEI_NAME_FOREIGN":"名子","TEI_TYPE":"0","CITY_CD":"401315","AREA_TYPE":"fukuoka","LATITUDE":"33.643048586715","LONGITUDE":"130.475192046431","NORIBA_CD":null,"COMMUNITY_TYPE":"0","NAVI_TYPE":"1","ROUTE_NUMBERS":["77","78","27B"]},{"UPD_DATE":null,"JIGYOSHA_NAME":"西鉄バス","TEI_KANA":"こうのみなと","UD_TYPE":"0","CITY_NAME":"福岡県宗像市","TEI_CD":"641990","JIGYOSHA_CD":"0001","TEI_NAME":"神湊","TEI_NAME_FOREIGN":"神湊","TEI_TYPE":"0","CITY_CD":"402206","AREA_TYPE":"fukuoka","LATITUDE":"33.84994269932690","LONGITUDE":"130.489054368376","NORIBA_CD":null,"COMMUNITY_TYPE":"0","NAVI_TYPE":"1","ROUTE_NUMBERS":["1","1-2"]},{"UPD_DATE":null,"JIGYOSHA_NAME":"西鉄バス","TEI_KANA":"おりたて","UD_TYPE":"0","CITY_NAME":"福岡市南区","TEI_CD":"581070","JIGYOSHA_CD":"0001","TEI_NAME":"折立","TEI_NAME_FOREIGN":"折立","TEI_TYPE":"0","CITY_CD":"401340","AREA_TYPE":"fukuoka","LATITUDE":"33.55171470678180","LONGITUDE":"130.438033338056","NORIBA_CD":null,"COMMUNITY_TYPE":"0","NAVI_TYPE":"1","ROUTE_NUMBERS":["42","46"]},{"UPD_DATE":null,"JIGYOSHA_NAME":"西鉄バス","TEI_KANA":"はりすりきたぐち","UD_TYPE":"0","CITY_NAME":"福岡県筑紫野市","TEI_CD":"620180","JIGYOSHA_CD":"0001","TEI_NAME":"針摺北口","TEI_NAME_FOREIGN":"針摺北口","TEI_TYPE":"0","CITY_CD":"402176","AREA_TYPE":"fukuoka","LATITUDE":"33.48965504427150","LONGITUDE":"130.535332115127","NORIBA_CD":null,"COMMUNITY_TYPE":"0","NAVI_TYPE":"1","ROUTE_NUMBERS":["400"]},{"UPD_DATE":null,"JIGYOSHA_NAME":"西鉄バス","TEI_KANA":"みわだいこうみんかんまえ","UD_TYPE":"0","CITY_NAME":"福岡市東区","TEI_CD":"661320","JIGYOSHA_CD":"0001","TEI_NAME":"美和台公民館前","TEI_NAME_FOREIGN":"美和台公民館前","TEI_TYPE":"0","CITY_CD":"401315","AREA_TYPE":"fukuoka","LATITUDE":"33.70141656627340","LONGITUDE":"130.430688054791","NORIBA_CD":null,"COMMUNITY_TYPE":"0","NAVI_TYPE":"1","ROUTE_NUMBERS":["23","23A"]},{"UPD_DATE":null,"JIGYOSHA_NAME":"西鉄バス","TEI_KANA":"まつがおかいりぐち","UD_TYPE":"0","CITY_NAME":"福岡県春日市","TEI_CD":"771040","JIGYOSHA_CD":"0001","TEI_NAME":"松ケ丘入口","TEI_NAME_FOREIGN":"松ケ丘入口","TEI_TYPE":"0","CITY_CD":"402184","AREA_TYPE":"fukuoka","LATITUDE":"33.51525393329040","LONGITUDE":"130.456733463928","NORIBA_CD":null,"COMMUNITY_TYPE":"0","NAVI_TYPE":"1","ROUTE_NUMBERS":["1","42"]},{"UPD_DATE":null,"JIGYOSHA_NAME":"西鉄バス","TEI_KANA":"のまおおいけこうえんまえ","UD_TYPE":"0","CITY_NAME":"福岡市南区","TEI_CD":"551120","JIGYOSHA_CD":"0001","TEI_NAME":"野間大池公園前","TEI_NAME_FOREIGN":"野間大池公園前","TEI_TYPE":"0","CITY_CD":"401340","AREA_TYPE":"fukuoka","LATITUDE":"33.55431589224840","LONGITUDE":"130.407329768184","NORIBA_CD":null,"COMMUNITY_TYPE":"0","NAVI_TYPE":"1","ROUTE_NUMBERS":["50","51","151","区1"]},{"UPD_DATE":null,"JIGYOSHA_NAME":"西鉄バス","TEI_KANA":"みなとこうえんまえ","UD_TYPE":"0","CITY_NAME":"福岡市東区","TEI_CD":"681440","JIGYOSHA_CD":"0001","TEI_NAME":"みなと公園前","TEI_NAME_FOREIGN":"みなと公園前","TEI_TYPE":"0","CITY_CD":"401315","AREA_TYPE":"fukuoka","LATITUDE":"33.65101367115660","LONGITUDE":"130.414300736633","NORIBA_CD":null,"COMMUNITY_TYPE":"0","NAVI_TYPE":"1","ROUTE_NUMBERS":["23-2"]},{"UPD_DATE":null,"JIGYOSHA_NAME":"西鉄バス","TEI_KANA":"はこざきさんちょうめ　きゅうだいまえ","UD_TYPE":"0","CITY_NAME":"福岡市東区","TEI_CD":"720470","JIGYOSHA_CD":"0001","TEI_NAME":"箱崎三丁目（旧：九大前）","TEI_NAME_FOREIGN":"箱崎三丁目（旧：九大前）","TEI_TYPE":"0","CITY_CD":"401315","AREA_TYPE":"fukuoka","LATITUDE":"33.62035110765960","LONGITUDE":"130.423278402957","NORIBA_CD":null,"COMMUNITY_TYPE":"0","NAVI_TYPE":"1","ROUTE_NUMBERS":["9","54-1","59","61","161"]},{"UPD_DATE":null,"JIGYOSHA_NAME":"西鉄バス","TEI_KANA":"はるだゆうびんきょくまえ","UD_TYPE":"0","CITY_NAME":"福岡県筑紫野市","TEI_CD":"772185","JIGYOSHA_CD":"0001","TEI_NAME":"原田郵便局前","TEI_NAME_FOREIGN":"原田郵便局前","TEI_TYPE":"0","CITY_CD":"402176","AREA_TYPE":"fukuoka","LATITUDE":"33.44869759010490","LONGITUDE":"130.544778216594","NORIBA_CD":null,"COMMUNITY_TYPE":"0","NAVI_TYPE":"1","ROUTE_NUMBERS":["17"]},{"UPD_DATE":null,"JIGYOSHA_NAME":"西鉄バス","TEI_KANA":"おざさ","UD_TYPE":"0","CITY_NAME":"福岡市中央区","TEI_CD":"551290","JIGYOSHA_CD":"0001","TEI_NAME":"小笹","TEI_NAME_FOREIGN":"小笹","TEI_TYPE":"0","CITY_CD":"401331","AREA_TYPE":"fukuoka","LATITUDE":"33.56496545047280","LONGITUDE":"130.390000716968","NORIBA_CD":null,"COMMUNITY_TYPE":"0","NAVI_TYPE":"1","ROUTE_NUMBERS":["56","57","57-1","58","59","69"]},{"UPD_DATE":null,"JIGYOSHA_NAME":"西鉄バス","TEI_KANA":"とくべつしえんがっこうまえ","UD_TYPE":"0","CITY_NAME":"福岡県新宮町","TEI_CD":"661070","JIGYOSHA_CD":"0001","TEI_NAME":"特別支援学校前","TEI_NAME_FOREIGN":"特別支援学校前","TEI_TYPE":"0","CITY_CD":"403458","AREA_TYPE":"fukuoka","LATITUDE":"33.71266560725010","LONGITUDE":"130.444667375840","NORIBA_CD":null,"COMMUNITY_TYPE":"0","NAVI_TYPE":"1","ROUTE_NUMBERS":["26A","26"]},{"UPD_DATE":null,"JIGYOSHA_NAME":"西鉄バス","TEI_KANA":"どいまち","UD_TYPE":"0","CITY_NAME":"福岡市博多区","TEI_CD":"700110","JIGYOSHA_CD":"0001","TEI_NAME":"土居町","TEI_NAME_FOREIGN":"土居町","TEI_TYPE":"0","CITY_CD":"401323","AREA_TYPE":"fukuoka","LATITUDE":"33.59634740683680","LONGITUDE":"130.407919783769","NORIBA_CD":null,"COMMUNITY_TYPE":"0","NAVI_TYPE":"1","ROUTE_NUMBERS":["1","3","71","74","77","78","79","610","620","630","7","12","13","51","52","56","57","61","140","161","420","W"]},{"UPD_DATE":null,"JIGYOSHA_NAME":"西鉄バス","TEI_KANA":"ほしがおかいりぐち　まほろば","UD_TYPE":"0","CITY_NAME":"福岡県太宰府市","TEI_CD":"770615","JIGYOSHA_CD":"0001","TEI_NAME":"星ヶ丘入口（まほろば）","TEI_NAME_FOREIGN":"星ヶ丘入口（まほろば）","TEI_TYPE":"0","CITY_CD":"402214","AREA_TYPE":"fukuoka","LATITUDE":"33.50454836365180","LONGITUDE":"130.530315845934","NORIBA_CD":null,"COMMUNITY_TYPE":"1","NAVI_TYPE":"1","ROUTE_NUMBERS":["7"]},{"UPD_DATE":null,"JIGYOSHA_NAME":null,"TEI_KANA":"てんじんそらりあすてーじまえ　てんじんこあまえ","UD_TYPE":"0","CITY_NAME":"福岡市中央区","TEI_CD":"D00105","JIGYOSHA_CD":"0000","TEI_NAME":"天神ソラリアステージ前（７）旧：天神コア","TEI_NAME_FOREIGN":"天神ソラリアステージ前（７）旧：天神コア","TEI_TYPE":"2","CITY_CD":"401331","AREA_TYPE":"fukuoka","LATITUDE":"33.59089484070050","LONGITUDE":"130.399369744915","NORIBA_CD":"0001","COMMUNITY_TYPE":"0","NAVI_TYPE":"1","ROUTE_NUMBERS":["7","200","203","204","205","206","208","5","44","63","20","54","54-1","59","BRT","W"]},{"UPD_DATE":null,"JIGYOSHA_NAME":"西鉄バス","TEI_KANA":"はぜはた","UD_TYPE":"0","CITY_NAME":"福岡県朝倉市","TEI_CD":"620630","JIGYOSHA_CD":"0001","TEI_NAME":"枦畑","TEI_NAME_FOREIGN":"枦畑","TEI_TYPE":"0","CITY_CD":"402281","AREA_TYPE":"fukuoka","LATITUDE":"33.39633203202380","LONGITUDE":"130.707417120844","NORIBA_CD":null,"COMMUNITY_TYPE":"0","NAVI_TYPE":"1","ROUTE_NUMBERS":["40","41"]},{"UPD_DATE":null,"JIGYOSHA_NAME":"西鉄バス","TEI_KANA":"あおばごちょうめだいいち","UD_TYPE":"0","CITY_NAME":"福岡市東区","TEI_CD":"601610","JIGYOSHA_CD":"0001","TEI_NAME":"青葉五丁目第一","TEI_NAME_FOREIGN":"青葉五丁目第一","TEI_TYPE":"0","CITY_CD":"401315","AREA_TYPE":"fukuoka","LATITUDE":"33.646668008692","LONGITUDE":"130.464263787350","NORIBA_CD":null,"COMMUNITY_TYPE":"0","NAVI_TYPE":"1","ROUTE_NUMBERS":["27","27B"]},{"UPD_DATE":null,"JIGYOSHA_NAME":"西鉄バス","TEI_KANA":"ひえだ","UD_TYPE":"0","CITY_NAME":"福岡県志免町","TEI_CD":"590190","JIGYOSHA_CD":"0001","TEI_NAME":"日枝","TEI_NAME_FOREIGN":"日枝","TEI_TYPE":"0","CITY_CD":"403431","AREA_TYPE":"fukuoka","LATITUDE":"33.59516163735410","LONGITUDE":"130.471105590846","NORIBA_CD":null,"COMMUNITY_TYPE":"0","NAVI_TYPE":"1","ROUTE_NUMBERS":["5","30","32","33","34"]},{"UPD_DATE":null,"JIGYOSHA_NAME":"西鉄バス","TEI_KANA":"はやみ","UD_TYPE":"0","CITY_NAME":"福岡県宇美町","TEI_CD":"590660","JIGYOSHA_CD":"0001","TEI_NAME":"早見","TEI_NAME_FOREIGN":"早見","TEI_TYPE":"0","CITY_CD":"403415","AREA_TYPE":"fukuoka","LATITUDE":"33.57012112350240","LONGITUDE":"130.517351903166","NORIBA_CD":null,"COMMUNITY_TYPE":"0","NAVI_TYPE":"1","ROUTE_NUMBERS":["37","37-1"]},{"UPD_DATE":null,"JIGYOSHA_NAME":"西鉄バス","TEI_KANA":"もとうら","UD_TYPE":"0","CITY_NAME":"福岡県宗像市","TEI_CD":"641390","JIGYOSHA_CD":"0001","TEI_NAME":"元末","TEI_NAME_FOREIGN":"元末","TEI_TYPE":"0","CITY_CD":"402206","AREA_TYPE":"fukuoka","LATITUDE":"33.86797548687650","LONGITUDE":"130.530065132119","NORIBA_CD":null,"COMMUNITY_TYPE":"0","NAVI_TYPE":"1","ROUTE_NUMBERS":["2","3"]},{"UPD_DATE":null,"JIGYOSHA_NAME":"西鉄バス","TEI_KANA":"たかおだいまえ","UD_TYPE":"0","CITY_NAME":"福岡県太宰府市","TEI_CD":"770310","JIGYOSHA_CD":"0001","TEI_NAME":"高雄台前","TEI_NAME_FOREIGN":"高雄台前","TEI_TYPE":"0","CITY_CD":"402214","AREA_TYPE":"fukuoka","LATITUDE":"33.495461563798","LONGITUDE":"130.543381179288","NORIBA_CD":null,"COMMUNITY_TYPE":"0","NAVI_TYPE":"1","ROUTE_NUMBERS":["1-1","1-2"]},{"UPD_DATE":null,"JIGYOSHA_NAME":"西鉄バス","TEI_KANA":"いきがおかちゅうがっこう","UD_TYPE":"0","CITY_NAME":"福岡市西区","TEI_CD":"560085","JIGYOSHA_CD":"0001","TEI_NAME":"壱岐丘中学校","TEI_NAME_FOREIGN":"壱岐丘中学校","TEI_TYPE":"0","CITY_CD":"401358","AREA_TYPE":"fukuoka","LATITUDE":"33.54639211343540","LONGITUDE":"130.314221865575","NORIBA_CD":null,"COMMUNITY_TYPE":"0","NAVI_TYPE":"1","ROUTE_NUMBERS":["1","204","505"]},{"UPD_DATE":null,"JIGYOSHA_NAME":"西鉄バス","TEI_KANA":"のだ","UD_TYPE":"0","CITY_NAME":"福岡市早良区","TEI_CD":"701210","JIGYOSHA_CD":"0001","TEI_NAME":"野田","TEI_NAME_FOREIGN":"野田","TEI_TYPE":"0","CITY_CD":"401374","AREA_TYPE":"fukuoka","LATITUDE":"33.49217374019110","LONGITUDE":"130.361597427657","NORIBA_CD":null,"COMMUNITY_TYPE":"0","NAVI_TYPE":"1","ROUTE_NUMBERS":["3","17"]},{"UPD_DATE":null,"JIGYOSHA_NAME":"西鉄バス","TEI_KANA":"いちのせ","UD_TYPE":"0","CITY_NAME":"福岡県那珂川市","TEI_CD":"570950","JIGYOSHA_CD":"0001","TEI_NAME":"市の瀬","TEI_NAME_FOREIGN":"市の瀬","TEI_TYPE":"0","CITY_CD":"402311","AREA_TYPE":"fukuoka","LATITUDE":"33.45739361768130","LONGITUDE":"130.427857526327","NORIBA_CD":null,"COMMUNITY_TYPE":"0","NAVI_TYPE":"1","ROUTE_NUMBERS":["62"]},{"UPD_DATE":null,"JIGYOSHA_NAME":"西鉄バス","TEI_KANA":"ふくおかじょがくいんかんごだいがくまえ","UD_TYPE":"0","CITY_NAME":"福岡県古賀市","TEI_CD":"661160","JIGYOSHA_CD":"0001","TEI_NAME":"福岡女学院看護大学前","TEI_NAME_FOREIGN":"福岡女学院看護大学前","TEI_TYPE":"0","CITY_CD":"402231","AREA_TYPE":"fukuoka","LATITUDE":"33.74072609555040","LONGITUDE":"130.472700755599","NORIBA_CD":null,"COMMUNITY_TYPE":"0","NAVI_TYPE":"1","ROUTE_NUMBERS":["6"]},{"UPD_DATE":null,"JIGYOSHA_NAME":"西鉄バス","TEI_KANA":"おつうえき","UD_TYPE":"0","CITY_NAME":"福岡県須恵町","TEI_CD":"591290","JIGYOSHA_CD":"0001","TEI_NAME":"乙植木","TEI_NAME_FOREIGN":"乙植木","TEI_TYPE":"0","CITY_CD":"403440","AREA_TYPE":"fukuoka","LATITUDE":"33.59966053068410","LONGITUDE":"130.492547602947","NORIBA_CD":null,"COMMUNITY_TYPE":"0","NAVI_TYPE":"1","ROUTE_NUMBERS":["36"]},{"UPD_DATE":null,"JIGYOSHA_NAME":"西鉄バス","TEI_KANA":"いきのまつばらだんちみなみ","UD_TYPE":"0","CITY_NAME":"福岡市西区","TEI_CD":"563110","JIGYOSHA_CD":"0001","TEI_NAME":"生の松原団地南","TEI_NAME_FOREIGN":"生の松原団地南","TEI_TYPE":"0","CITY_CD":"401358","AREA_TYPE":"fukuoka","LATITUDE":"33.56877877988150","LONGITUDE":"130.296270913503","NORIBA_CD":null,"COMMUNITY_TYPE":"0","NAVI_TYPE":"1","ROUTE_NUMBERS":["1-6","206","506","526","1-7","K"]},{"UPD_DATE":null,"JIGYOSHA_NAME":"西鉄バス","TEI_KANA":"かしいだいよんちょうめ","UD_TYPE":"0","CITY_NAME":"福岡市東区","TEI_CD":"661217","JIGYOSHA_CD":"0001","TEI_NAME":"香椎台四丁目","TEI_NAME_FOREIGN":"香椎台四丁目","TEI_TYPE":"0","CITY_CD":"401315","AREA_TYPE":"fukuoka","LATITUDE":"33.65316425814510","LONGITUDE":"130.461074753065","NORIBA_CD":null,"COMMUNITY_TYPE":"0","NAVI_TYPE":"1","ROUTE_NUMBERS":["27N"]},{"UPD_DATE":null,"JIGYOSHA_NAME":"西鉄バス","TEI_KANA":"ふたせがわ","UD_TYPE":"1","CITY_NAME":"福岡県篠栗町","TEI_CD":"810450","JIGYOSHA_CD":"0001","TEI_NAME":"二瀬川","TEI_NAME_FOREIGN":"二瀬川","TEI_TYPE":"0","CITY_CD":"403423","AREA_TYPE":"fukuoka","LATITUDE":"33.61855503976260","LONGITUDE":"130.580142458243","NORIBA_CD":null,"COMMUNITY_TYPE":"0","NAVI_TYPE":"1","ROUTE_NUMBERS":["31"]},{"UPD_DATE":null,"JIGYOSHA_NAME":"西鉄バス","TEI_KANA":"とうこうちょう","UD_TYPE":"0","CITY_NAME":"福岡市博多区","TEI_CD":"580050","JIGYOSHA_CD":"0001","TEI_NAME":"東光町","TEI_NAME_FOREIGN":"東光町","TEI_TYPE":"0","CITY_CD":"401323","AREA_TYPE":"fukuoka","LATITUDE":"33.59462790299480","LONGITUDE":"130.425795378394","NORIBA_CD":null,"COMMUNITY_TYPE":"0","NAVI_TYPE":"1","ROUTE_NUMBERS":["37-1","38","41","43","30","32","39","39B","33","37","73","139"]},{"UPD_DATE":null,"JIGYOSHA_NAME":"西鉄バス","TEI_KANA":"おざさちゅうおうこうえんまえ","UD_TYPE":"0","CITY_NAME":"福岡市中央区","TEI_CD":"610108","JIGYOSHA_CD":"0001","TEI_NAME":"小笹中央公園前","TEI_NAME_FOREIGN":"小笹中央公園前","TEI_TYPE":"0","CITY_CD":"401331","AREA_TYPE":"fukuoka","LATITUDE":"33.56649324173410","LONGITUDE":"130.387405862118","NORIBA_CD":null,"COMMUNITY_TYPE":"0","NAVI_TYPE":"1","ROUTE_NUMBERS":["54","69-1","54-1"]},{"UPD_DATE":null,"JIGYOSHA_NAME":"西鉄バス","TEI_KANA":"ちはやろくちょうめ　みゆきまち","UD_TYPE":"0","CITY_NAME":"福岡市東区","TEI_CD":"680098","JIGYOSHA_CD":"0001","TEI_NAME":"千早六丁目（旧：御幸町）","TEI_NAME_FOREIGN":"千早六丁目（旧：御幸町）","TEI_TYPE":"0","CITY_CD":"401315","AREA_TYPE":"fukuoka","LATITUDE":"33.65656949239350","LONGITUDE":"130.438087505336","NORIBA_CD":null,"COMMUNITY_TYPE":"0","NAVI_TYPE":"1","ROUTE_NUMBERS":["1","22","22N","22T","23","23B","27B","28B","27N","29"]},{"UPD_DATE":null,"JIGYOSHA_NAME":"西鉄バス","TEI_KANA":"よりいひがし","UD_TYPE":"0","CITY_NAME":"福岡県筑前町","TEI_CD":"620460","JIGYOSHA_CD":"0001","TEI_NAME":"依井東","TEI_NAME_FOREIGN":"依井東","TEI_TYPE":"0","CITY_CD":"404471","AREA_TYPE":"fukuoka","LATITUDE":"33.42901448617850","LONGITUDE":"130.647298608711","NORIBA_CD":null,"COMMUNITY_TYPE":"0","NAVI_TYPE":"1","ROUTE_NUMBERS":["40","400","41"]},{"UPD_DATE":null,"JIGYOSHA_NAME":"西鉄バス","TEI_KANA":"かどまつ","UD_TYPE":"0","CITY_NAME":"福岡県粕屋町","TEI_CD":"816150","JIGYOSHA_CD":"0001","TEI_NAME":"門松","TEI_NAME_FOREIGN":"門松","TEI_TYPE":"0","CITY_CD":"403491","AREA_TYPE":"fukuoka","LATITUDE":"33.61965846389770","LONGITUDE":"130.496681338804","NORIBA_CD":null,"COMMUNITY_TYPE":"0","NAVI_TYPE":"1","ROUTE_NUMBERS":["31","310"]},{"UPD_DATE":null,"JIGYOSHA_NAME":"西鉄バス","TEI_KANA":"もうこづか","UD_TYPE":"0","CITY_NAME":"福岡市東区","TEI_CD":"660850","JIGYOSHA_CD":"0001","TEI_NAME":"蒙古塚","TEI_NAME_FOREIGN":"蒙古塚","TEI_TYPE":"0","CITY_CD":"401315","AREA_TYPE":"fukuoka","LATITUDE":"33.66406819546190","LONGITUDE":"130.295257021987","NORIBA_CD":null,"COMMUNITY_TYPE":"0","NAVI_TYPE":"1","ROUTE_NUMBERS":["1"]},{"UPD_DATE":null,"JIGYOSHA_NAME":"西鉄バス","TEI_KANA":"てりはしょうちゅうがっこうまえ","UD_TYPE":"0","CITY_NAME":"福岡市東区","TEI_CD":"582463","JIGYOSHA_CD":"0001","TEI_NAME":"照葉小中学校前","TEI_NAME_FOREIGN":"照葉小中学校前","TEI_TYPE":"0","CITY_CD":"401315","AREA_TYPE":"fukuoka","LATITUDE":"33.66628224849170","LONGITUDE":"130.422298801037","NORIBA_CD":null,"COMMUNITY_TYPE":"0","NAVI_TYPE":"1","ROUTE_NUMBERS":["1","21B","22B","22N","22T","23","29","29N","210","220","BRT"]},{"UPD_DATE":null,"JIGYOSHA_NAME":"西鉄バス","TEI_KANA":"てんぱいざかだいいち","UD_TYPE":"0","CITY_NAME":"福岡県筑紫野市","TEI_CD":"770852","JIGYOSHA_CD":"0001","TEI_NAME":"天拝坂第一","TEI_NAME_FOREIGN":"天拝坂第一","TEI_TYPE":"0","CITY_CD":"402176","AREA_TYPE":"fukuoka","LATITUDE":"33.49915638378350","LONGITUDE":"130.498450740585","NORIBA_CD":null,"COMMUNITY_TYPE":"0","NAVI_TYPE":"1","ROUTE_NUMBERS":["22"]},{"UPD_DATE":null,"JIGYOSHA_NAME":"西鉄バス","TEI_KANA":"ふくおかたわー　てぃえぬしーほうそうかいかん","UD_TYPE":"0","CITY_NAME":"福岡市早良区","TEI_CD":"724213","JIGYOSHA_CD":"0001","TEI_NAME":"福岡タワー（ＴＮＣ放送会館）","TEI_NAME_FOREIGN":"福岡タワー（ＴＮＣ放送会館）","TEI_TYPE":"0","CITY_CD":"401374","AREA_TYPE":"fukuoka","LATITUDE":"33.59286082169430","LONGITUDE":"130.353070499498","NORIBA_CD":null,"COMMUNITY_TYPE":"0","NAVI_TYPE":"1","ROUTE_NUMBERS":["44","151","152","200","204","302","305","W1","W2","40","139","306","312","2-9","3","4","6-1","10","15","20","54-1","94","95"]},{"UPD_DATE":null,"JIGYOSHA_NAME":"西鉄バス","TEI_KANA":"みかさだいまえ","UD_TYPE":"0","CITY_NAME":"福岡県筑紫野市","TEI_CD":"770190","JIGYOSHA_CD":"0001","TEI_NAME":"三笠台前","TEI_NAME_FOREIGN":"三笠台前","TEI_TYPE":"0","CITY_CD":"402176","AREA_TYPE":"fukuoka","LATITUDE":"33.51424667464580","LONGITUDE":"130.550257743202","NORIBA_CD":null,"COMMUNITY_TYPE":"0","NAVI_TYPE":"1","ROUTE_NUMBERS":["1-1","1-2"]},{"UPD_DATE":null,"JIGYOSHA_NAME":"西鉄バス","TEI_KANA":"じぇいあーるかすがえき","UD_TYPE":"0","CITY_NAME":"福岡県春日市","TEI_CD":"772170","JIGYOSHA_CD":"0001","TEI_NAME":"ＪＲ春日駅","TEI_NAME_FOREIGN":"ＪＲ春日駅","TEI_TYPE":"0","CITY_CD":"402184","AREA_TYPE":"fukuoka","LATITUDE":"33.53565995894790","LONGITUDE":"130.468658533930","NORIBA_CD":null,"COMMUNITY_TYPE":"0","NAVI_TYPE":"1","ROUTE_NUMBERS":["1","2","6"]},{"UPD_DATE":null,"JIGYOSHA_NAME":"西鉄バス","TEI_KANA":"こたべよんちょうめ","UD_TYPE":"0","CITY_NAME":"福岡市早良区","TEI_CD":"560245","JIGYOSHA_CD":"0001","TEI_NAME":"小田部四丁目","TEI_NAME_FOREIGN":"小田部四丁目","TEI_TYPE":"0","CITY_CD":"401374","AREA_TYPE":"fukuoka","LATITUDE":"33.56592828367570","LONGITUDE":"130.329097730570","NORIBA_CD":null,"COMMUNITY_TYPE":"0","NAVI_TYPE":"1","ROUTE_NUMBERS":["503"]},{"UPD_DATE":null,"JIGYOSHA_NAME":"西鉄バス","TEI_KANA":"だざいふしやくしょまえ","UD_TYPE":"0","CITY_NAME":"福岡県太宰府市","TEI_CD":"770060","JIGYOSHA_CD":"0001","TEI_NAME":"太宰府市役所前","TEI_NAME_FOREIGN":"太宰府市役所前","TEI_TYPE":"0","CITY_CD":"402214","AREA_TYPE":"fukuoka","LATITUDE":"33.51367727652890","LONGITUDE":"130.523978951851","NORIBA_CD":null,"COMMUNITY_TYPE":"0","NAVI_TYPE":"1","ROUTE_NUMBERS":["4-1"]},{"UPD_DATE":null,"JIGYOSHA_NAME":"西鉄バス","TEI_KANA":"ながずみよんちょうめ","UD_TYPE":"0","CITY_NAME":"福岡市南区","TEI_CD":"550810","JIGYOSHA_CD":"0001","TEI_NAME":"長住四丁目","TEI_NAME_FOREIGN":"長住四丁目","TEI_TYPE":"0","CITY_CD":"401340","AREA_TYPE":"fukuoka","LATITUDE":"33.54798338112610","LONGITUDE":"130.396540955776","NORIBA_CD":null,"COMMUNITY_TYPE":"0","NAVI_TYPE":"1","ROUTE_NUMBERS":["52","52-1","55","65","67","96","152","区2"]},{"UPD_DATE":null,"JIGYOSHA_NAME":"西鉄バス","TEI_KANA":"さくらがおかだいよん","UD_TYPE":"0","CITY_NAME":"福岡県志免町","TEI_CD":"593190","JIGYOSHA_CD":"0001","TEI_NAME":"桜丘第四","TEI_NAME_FOREIGN":"桜丘第四","TEI_TYPE":"0","CITY_CD":"403431","AREA_TYPE":"fukuoka","LATITUDE":"33.56466414742490","LONGITUDE":"130.485305815840","NORIBA_CD":null,"COMMUNITY_TYPE":"0","NAVI_TYPE":"1","ROUTE_NUMBERS":["1","38","39","39B","139","390"]},{"UPD_DATE":null,"JIGYOSHA_NAME":"西鉄バス","TEI_KANA":"ひよしだいだんちまえ","UD_TYPE":"0","CITY_NAME":"福岡県古賀市","TEI_CD":"661125","JIGYOSHA_CD":"0001","TEI_NAME":"日吉台団地前","TEI_NAME_FOREIGN":"日吉台団地前","TEI_TYPE":"0","CITY_CD":"402231","AREA_TYPE":"fukuoka","LATITUDE":"33.72617340853030","LONGITUDE":"130.458755583836","NORIBA_CD":null,"COMMUNITY_TYPE":"0","NAVI_TYPE":"1","ROUTE_NUMBERS":["26A","26"]},{"UPD_DATE":null,"JIGYOSHA_NAME":"西鉄バス","TEI_KANA":"はった","UD_TYPE":"0","CITY_NAME":"福岡市東区","TEI_CD":"600330","JIGYOSHA_CD":"0001","TEI_NAME":"八田","TEI_NAME_FOREIGN":"八田","TEI_TYPE":"0","CITY_CD":"401315","AREA_TYPE":"fukuoka","LATITUDE":"33.63580110625060","LONGITUDE":"130.460555595698","NORIBA_CD":null,"COMMUNITY_TYPE":"0","NAVI_TYPE":"1","ROUTE_NUMBERS":["2","4","22N","22T","24C","73","72C","78","77","79"]},{"UPD_DATE":null,"JIGYOSHA_NAME":"西鉄バス","TEI_KANA":"たかさご","UD_TYPE":"0","CITY_NAME":"福岡市中央区","TEI_CD":"550090","JIGYOSHA_CD":"0001","TEI_NAME":"高砂","TEI_NAME_FOREIGN":"高砂","TEI_TYPE":"0","CITY_CD":"401331","AREA_TYPE":"fukuoka","LATITUDE":"33.57993416909230","LONGITUDE":"130.408302507760","NORIBA_CD":null,"COMMUNITY_TYPE":"0","NAVI_TYPE":"1","ROUTE_NUMBERS":["55","61","W4","65","68-1","W1","W2","W3","W"]},{"UPD_DATE":null,"JIGYOSHA_NAME":null,"TEI_KANA":"はかたえきちくしぐち","UD_TYPE":"0","CITY_NAME":"福岡市博多区","TEI_CD":"D00209","JIGYOSHA_CD":"0000","TEI_NAME":"博多駅筑紫口","TEI_NAME_FOREIGN":"博多駅筑紫口","TEI_TYPE":"2","CITY_CD":"401323","AREA_TYPE":"fukuoka","LATITUDE":"33.59005043632240","LONGITUDE":"130.422404525765","NORIBA_CD":null,"COMMUNITY_TYPE":"0","NAVI_TYPE":"1","ROUTE_NUMBERS":["17","29N","40","44","45","114","300","8","29"]},{"UPD_DATE":null,"JIGYOSHA_NAME":"西鉄バス","TEI_KANA":"たぐましんまち","UD_TYPE":"0","CITY_NAME":"福岡市早良区","TEI_CD":"520900","JIGYOSHA_CD":"0001","TEI_NAME":"田隈新町","TEI_NAME_FOREIGN":"田隈新町","TEI_TYPE":"0","CITY_CD":"401374","AREA_TYPE":"fukuoka","LATITUDE":"33.54664948491430","LONGITUDE":"130.337064956625","NORIBA_CD":null,"COMMUNITY_TYPE":"0","NAVI_TYPE":"1","ROUTE_NUMBERS":["2","2-1","201","306"]},{"UPD_DATE":null,"JIGYOSHA_NAME":"西鉄バス","TEI_KANA":"つきのうらさんちょうめ","UD_TYPE":"0","CITY_NAME":"福岡県大野城市","TEI_CD":"770815","JIGYOSHA_CD":"0001","TEI_NAME":"月の浦三丁目","TEI_NAME_FOREIGN":"月の浦三丁目","TEI_TYPE":"0","CITY_CD":"402192","AREA_TYPE":"fukuoka","LATITUDE":"33.49889266899280","LONGITUDE":"130.455914285343","NORIBA_CD":null,"COMMUNITY_TYPE":"0","NAVI_TYPE":"1","ROUTE_NUMBERS":["1","6","20","21","23","42"]},{"UPD_DATE":null,"JIGYOSHA_NAME":"西鉄バス","TEI_KANA":"もろおかよつかど","UD_TYPE":"0","CITY_NAME":"福岡市博多区","TEI_CD":"580730","JIGYOSHA_CD":"0001","TEI_NAME":"諸岡四角","TEI_NAME_FOREIGN":"諸岡四角","TEI_TYPE":"0","CITY_CD":"401323","AREA_TYPE":"fukuoka","LATITUDE":"33.56099488270650","LONGITUDE":"130.447682109412","NORIBA_CD":null,"COMMUNITY_TYPE":"0","NAVI_TYPE":"1","ROUTE_NUMBERS":["44","45"]},{"UPD_DATE":null,"JIGYOSHA_NAME":"西鉄バス","TEI_KANA":"みせはら","UD_TYPE":"0","CITY_NAME":"福岡県古賀市","TEI_CD":"632510","JIGYOSHA_CD":"0001","TEI_NAME":"三瀬原","TEI_NAME_FOREIGN":"三瀬原","TEI_TYPE":"0","CITY_CD":"402231","AREA_TYPE":"fukuoka","LATITUDE":"33.71131458919290","LONGITUDE":"130.492610456420","NORIBA_CD":null,"COMMUNITY_TYPE":"0","NAVI_TYPE":"1","ROUTE_NUMBERS":["1"]},{"UPD_DATE":null,"JIGYOSHA_NAME":"西鉄バス","TEI_KANA":"しおはまぐち","UD_TYPE":"0","CITY_NAME":"福岡県福津市","TEI_CD":"641830","JIGYOSHA_CD":"0001","TEI_NAME":"塩浜口","TEI_NAME_FOREIGN":"塩浜口","TEI_TYPE":"0","CITY_CD":"402249","AREA_TYPE":"fukuoka","LATITUDE":"33.80874683088830","LONGITUDE":"130.473323571741","NORIBA_CD":null,"COMMUNITY_TYPE":"0","NAVI_TYPE":"1","ROUTE_NUMBERS":["1-1","1-2"]},{"UPD_DATE":null,"JIGYOSHA_NAME":null,"TEI_KANA":"てんじんよんちょうめ","UD_TYPE":"0","CITY_NAME":"福岡市中央区","TEI_CD":"D20043","JIGYOSHA_CD":"0000","TEI_NAME":"天神四丁目","TEI_NAME_FOREIGN":"天神四丁目","TEI_TYPE":"2","CITY_CD":"401331","AREA_TYPE":"fukuoka","LATITUDE":"33.5933","LONGITUDE":"130.4011","NORIBA_CD":null,"COMMUNITY_TYPE":"0","NAVI_TYPE":"1","ROUTE_NUMBERS":["72C","4","4-3","21","21A","21B","22","22-1","22B","22N","23","23-1","23-2","23A","23B","24C","26","26A","27","27B","27N","28B","210","220","32","36","310","370","390","31"]},{"UPD_DATE":null,"JIGYOSHA_NAME":"西鉄バス","TEI_KANA":"もんぜん","UD_TYPE":"0","CITY_NAME":"福岡県宗像市","TEI_CD":"641410","JIGYOSHA_CD":"0001","TEI_NAME":"門前","TEI_NAME_FOREIGN":"門前","TEI_TYPE":"0","CITY_CD":"402206","AREA_TYPE":"fukuoka","LATITUDE":"33.87037222863130","LONGITUDE":"130.529957030734","NORIBA_CD":null,"COMMUNITY_TYPE":"0","NAVI_TYPE":"1","ROUTE_NUMBERS":["2","3"]},{"UPD_DATE":null,"JIGYOSHA_NAME":"西鉄バス","TEI_KANA":"うちの","UD_TYPE":"0","CITY_NAME":"福岡市早良区","TEI_CD":"700820","JIGYOSHA_CD":"0001","TEI_NAME":"内野","TEI_NAME_FOREIGN":"内野","TEI_TYPE":"0","CITY_CD":"401374","AREA_TYPE":"fukuoka","LATITUDE":"33.50171926173980","LONGITUDE":"130.335408163111","NORIBA_CD":null,"COMMUNITY_TYPE":"0","NAVI_TYPE":"1","ROUTE_NUMBERS":["3","17"]},{"UPD_DATE":null,"JIGYOSHA_NAME":"西鉄バス","TEI_KANA":"ささぐりなかまち　ささぐりのうきょう","UD_TYPE":"0","CITY_NAME":"福岡県篠栗町","TEI_CD":"816050","JIGYOSHA_CD":"0001","TEI_NAME":"篠栗中町（旧篠栗農協）","TEI_NAME_FOREIGN":"篠栗中町（旧篠栗農協）","TEI_TYPE":"0","CITY_CD":"403423","AREA_TYPE":"fukuoka","LATITUDE":"33.624012572314","LONGITUDE":"130.529550408565","NORIBA_CD":null,"COMMUNITY_TYPE":"0","NAVI_TYPE":"1","ROUTE_NUMBERS":["31","310"]},{"UPD_DATE":null,"JIGYOSHA_NAME":"西鉄バス","TEI_KANA":"じゆうがおかにちょうめ","UD_TYPE":"0","CITY_NAME":"福岡県宗像市","TEI_CD":"642850","JIGYOSHA_CD":"0001","TEI_NAME":"自由ケ丘二丁目","TEI_NAME_FOREIGN":"自由ケ丘二丁目","TEI_TYPE":"0","CITY_CD":"402206","AREA_TYPE":"fukuoka","LATITUDE":"33.79708489579880","LONGITUDE":"130.577377467153","NORIBA_CD":null,"COMMUNITY_TYPE":"0","NAVI_TYPE":"1","ROUTE_NUMBERS":["8"]},{"UPD_DATE":null,"JIGYOSHA_NAME":"西鉄バス","TEI_KANA":"はくぶつかんきたぐち","UD_TYPE":"0","CITY_NAME":"福岡市早良区","TEI_CD":"724212","JIGYOSHA_CD":"0001","TEI_NAME":"博物館北口","TEI_NAME_FOREIGN":"博物館北口","TEI_TYPE":"0","CITY_CD":"401374","AREA_TYPE":"fukuoka","LATITUDE":"33.59214791410380","LONGITUDE":"130.353995455508","NORIBA_CD":null,"COMMUNITY_TYPE":"0","NAVI_TYPE":"1","ROUTE_NUMBERS":["44","151","152","200","204","302","305","W1","W2","40","139","306","312","1","1-5","2-9","3","4","6-1","10","15","20","54-1","94","95","2"]},{"UPD_DATE":null,"JIGYOSHA_NAME":"西鉄バス","TEI_KANA":"こがばしとりあすまえ","UD_TYPE":"0","CITY_NAME":"福岡県久山町","TEI_CD":"600485","JIGYOSHA_CD":"0001","TEI_NAME":"古賀橋トリアス前","TEI_NAME_FOREIGN":"古賀橋トリアス前","TEI_TYPE":"0","CITY_CD":"403482","AREA_TYPE":"fukuoka","LATITUDE":"33.654942737955","LONGITUDE":"130.487612909549","NORIBA_CD":null,"COMMUNITY_TYPE":"0","NAVI_TYPE":"1","ROUTE_NUMBERS":["27B","77"]},{"UPD_DATE":null,"JIGYOSHA_NAME":"西鉄バス","TEI_KANA":"みやのした","UD_TYPE":"0","CITY_NAME":"福岡県古賀市","TEI_CD":"660225","JIGYOSHA_CD":"0001","TEI_NAME":"宮の下","TEI_NAME_FOREIGN":"宮の下","TEI_TYPE":"0","CITY_CD":"402231","AREA_TYPE":"fukuoka","LATITUDE":"33.732160854237","LONGITUDE":"130.520936144095","NORIBA_CD":null,"COMMUNITY_TYPE":"0","NAVI_TYPE":"1","ROUTE_NUMBERS":["1","2","2-1"]},{"UPD_DATE":null,"JIGYOSHA_NAME":"西鉄バス","TEI_KANA":"まつがえぐち","UD_TYPE":"0","CITY_NAME":"福岡市南区","TEI_CD":"550470","JIGYOSHA_CD":"0001","TEI_NAME":"松ケ枝口","TEI_NAME_FOREIGN":"松ケ枝口","TEI_TYPE":"0","CITY_CD":"401340","AREA_TYPE":"fukuoka","LATITUDE":"33.54301323659210","LONGITUDE":"130.415081644848","NORIBA_CD":null,"COMMUNITY_TYPE":"0","NAVI_TYPE":"1","ROUTE_NUMBERS":["68-1","61"]},{"UPD_DATE":null,"JIGYOSHA_NAME":"西鉄バス","TEI_KANA":"しおうじざかだいに","UD_TYPE":"0","CITY_NAME":"福岡県宇美町","TEI_CD":"590582","JIGYOSHA_CD":"0001","TEI_NAME":"四王寺坂第二","TEI_NAME_FOREIGN":"四王寺坂第二","TEI_TYPE":"0","CITY_CD":"403415","AREA_TYPE":"fukuoka","LATITUDE":"33.56125709613370","LONGITUDE":"130.5187561947","NORIBA_CD":null,"COMMUNITY_TYPE":"0","NAVI_TYPE":"1","ROUTE_NUMBERS":["37","37-1"]},{"UPD_DATE":null,"JIGYOSHA_NAME":"西鉄バス","TEI_KANA":"ばいこうえん","UD_TYPE":"0","CITY_NAME":"福岡市中央区","TEI_CD":"610110","JIGYOSHA_CD":"0001","TEI_NAME":"梅光園","TEI_NAME_FOREIGN":"梅光園","TEI_TYPE":"0","CITY_CD":"401331","AREA_TYPE":"fukuoka","LATITUDE":"33.57157680965890","LONGITUDE":"130.376250333668","NORIBA_CD":null,"COMMUNITY_TYPE":"0","NAVI_TYPE":"1","ROUTE_NUMBERS":["94","12"]},{"UPD_DATE":null,"JIGYOSHA_NAME":"西鉄バス","TEI_KANA":"にしけいさつしょまえ","UD_TYPE":"0","CITY_NAME":"福岡市西区","TEI_CD":"563168","JIGYOSHA_CD":"0001","TEI_NAME":"西警察署前","TEI_NAME_FOREIGN":"西警察署前","TEI_TYPE":"0","CITY_CD":"401358","AREA_TYPE":"fukuoka","LATITUDE":"33.57516930218620","LONGITUDE":"130.272245026617","NORIBA_CD":null,"COMMUNITY_TYPE":"0","NAVI_TYPE":"1","ROUTE_NUMBERS":["K"]},{"UPD_DATE":null,"JIGYOSHA_NAME":"西鉄バス","TEI_KANA":"ひのさといっちょうめ","UD_TYPE":"0","CITY_NAME":"福岡県宗像市","TEI_CD":"643570","JIGYOSHA_CD":"0001","TEI_NAME":"日の里一丁目","TEI_NAME_FOREIGN":"日の里一丁目","TEI_TYPE":"0","CITY_CD":"402206","AREA_TYPE":"fukuoka","LATITUDE":"33.79578925882760","LONGITUDE":"130.532977214214","NORIBA_CD":null,"COMMUNITY_TYPE":"0","NAVI_TYPE":"1","ROUTE_NUMBERS":["15","16"]},{"UPD_DATE":null,"JIGYOSHA_NAME":"西鉄バス","TEI_KANA":"にしつきぐまさんちょうめ","UD_TYPE":"0","CITY_NAME":"福岡市博多区","TEI_CD":"580340","JIGYOSHA_CD":"0001","TEI_NAME":"西月隈三丁目","TEI_NAME_FOREIGN":"西月隈三丁目","TEI_TYPE":"0","CITY_CD":"401323","AREA_TYPE":"fukuoka","LATITUDE":"33.57050696354360","LONGITUDE":"130.453307204253","NORIBA_CD":null,"COMMUNITY_TYPE":"0","NAVI_TYPE":"1","ROUTE_NUMBERS":["43","420"]},{"UPD_DATE":null,"JIGYOSHA_NAME":"西鉄バス","TEI_KANA":"ふっこうだいまえ","UD_TYPE":"0","CITY_NAME":"福岡市東区","TEI_CD":"661015","JIGYOSHA_CD":"0001","TEI_NAME":"福工大前","TEI_NAME_FOREIGN":"福工大前","TEI_TYPE":"0","CITY_CD":"401315","AREA_TYPE":"fukuoka","LATITUDE":"33.69704912777160","LONGITUDE":"130.436089807287","NORIBA_CD":null,"COMMUNITY_TYPE":"0","NAVI_TYPE":"1","ROUTE_NUMBERS":["23","23A","26A","26"]},{"UPD_DATE":null,"JIGYOSHA_NAME":"西鉄バス","TEI_KANA":"ふくおかびょういんした","UD_TYPE":"0","CITY_NAME":"福岡市南区","TEI_CD":"550350","JIGYOSHA_CD":"0001","TEI_NAME":"福岡病院下","TEI_NAME_FOREIGN":"福岡病院下","TEI_TYPE":"0","CITY_CD":"401340","AREA_TYPE":"fukuoka","LATITUDE":"33.53660576567730","LONGITUDE":"130.406135682845","NORIBA_CD":null,"COMMUNITY_TYPE":"0","NAVI_TYPE":"1","ROUTE_NUMBERS":["6","61","66","68-1","161"]},{"UPD_DATE":null,"JIGYOSHA_NAME":"西鉄バス","TEI_KANA":"ふくおかせいりょうこうこうまえ","UD_TYPE":"0","CITY_NAME":"福岡市西区","TEI_CD":"560050","JIGYOSHA_CD":"0001","TEI_NAME":"福岡西陵高校前","TEI_NAME_FOREIGN":"福岡西陵高校前","TEI_TYPE":"0","CITY_CD":"401358","AREA_TYPE":"fukuoka","LATITUDE":"33.56392794482260","LONGITUDE":"130.297449451040","NORIBA_CD":null,"COMMUNITY_TYPE":"0","NAVI_TYPE":"1","ROUTE_NUMBERS":["204","206","1"]},{"UPD_DATE":null,"JIGYOSHA_NAME":null,"TEI_KANA":"しみずまち（おおはし・なかがわほうめん）","UD_TYPE":"0","CITY_NAME":"福岡市南区","TEI_CD":"D11113","JIGYOSHA_CD":"0000","TEI_NAME":"清水町（大橋・那珂川方面）","TEI_NAME_FOREIGN":"清水町（大橋・那珂川方面）","TEI_TYPE":"2","CITY_CD":"401340","AREA_TYPE":"fukuoka","LATITUDE":"33.56916660","LONGITUDE":"130.41780887800002","NORIBA_CD":null,"COMMUNITY_TYPE":"0","NAVI_TYPE":"1","ROUTE_NUMBERS":["W"]},{"UPD_DATE":null,"JIGYOSHA_NAME":"西鉄バス","TEI_KANA":"さくらびょういんまえ","UD_TYPE":"0","CITY_NAME":"福岡市城南区","TEI_CD":"610028","JIGYOSHA_CD":"0001","TEI_NAME":"さくら病院前","TEI_NAME_FOREIGN":"さくら病院前","TEI_TYPE":"0","CITY_CD":"401366","AREA_TYPE":"fukuoka","LATITUDE":"33.54627210504140","LONGITUDE":"130.370256217498","NORIBA_CD":null,"COMMUNITY_TYPE":"0","NAVI_TYPE":"1","ROUTE_NUMBERS":["13","外環"]},{"UPD_DATE":null,"JIGYOSHA_NAME":"西鉄バス","TEI_KANA":"にしにほんへるすせんたーまえ　まほろば","UD_TYPE":"0","CITY_NAME":"福岡県太宰府市","TEI_CD":"772750","JIGYOSHA_CD":"0001","TEI_NAME":"西日本ヘルスセンター前（まほろば）","TEI_NAME_FOREIGN":"西日本ヘルスセンター前（まほろば）","TEI_TYPE":"0","CITY_CD":"402214","AREA_TYPE":"fukuoka","LATITUDE":"33.51752856704080","LONGITUDE":"130.506944189233","NORIBA_CD":null,"COMMUNITY_TYPE":"1","NAVI_TYPE":"1","ROUTE_NUMBERS":["4","3"]},{"UPD_DATE":null,"JIGYOSHA_NAME":"西鉄バス","TEI_KANA":"じろうまるだんち","UD_TYPE":"0","CITY_NAME":"福岡市早良区","TEI_CD":"520570","JIGYOSHA_CD":"0001","TEI_NAME":"次郎丸団地","TEI_NAME_FOREIGN":"次郎丸団地","TEI_TYPE":"0","CITY_CD":"401374","AREA_TYPE":"fukuoka","LATITUDE":"33.54669429147290","LONGITUDE":"130.326264851501","NORIBA_CD":null,"COMMUNITY_TYPE":"0","NAVI_TYPE":"1","ROUTE_NUMBERS":["2","2-1","19","201","306"]},{"UPD_DATE":null,"JIGYOSHA_NAME":"西鉄バス","TEI_KANA":"くろぼ","UD_TYPE":"0","CITY_NAME":"福岡県宇美町","TEI_CD":"590790","JIGYOSHA_CD":"0001","TEI_NAME":"黒穂","TEI_NAME_FOREIGN":"黒穂","TEI_TYPE":"0","CITY_CD":"403415","AREA_TYPE":"fukuoka","LATITUDE":"33.57296295861640","LONGITUDE":"130.525314111054","NORIBA_CD":null,"COMMUNITY_TYPE":"0","NAVI_TYPE":"1","ROUTE_NUMBERS":["11","32","33","34"]},{"UPD_DATE":null,"JIGYOSHA_NAME":"西鉄バス","TEI_KANA":"しんがっこうまえ","UD_TYPE":"0","CITY_NAME":"福岡市城南区","TEI_CD":"610070","JIGYOSHA_CD":"0001","TEI_NAME":"神学校前","TEI_NAME_FOREIGN":"神学校前","TEI_TYPE":"0","CITY_CD":"401366","AREA_TYPE":"fukuoka","LATITUDE":"33.55475323606780","LONGITUDE":"130.372441645472","NORIBA_CD":null,"COMMUNITY_TYPE":"0","NAVI_TYPE":"1","ROUTE_NUMBERS":["12"]},{"UPD_DATE":null,"JIGYOSHA_NAME":"西鉄バス","TEI_KANA":"ながと","UD_TYPE":"0","CITY_NAME":"福岡県粕屋町","TEI_CD":"816173","JIGYOSHA_CD":"0001","TEI_NAME":"長戸","TEI_NAME_FOREIGN":"長戸","TEI_TYPE":"0","CITY_CD":"403491","AREA_TYPE":"fukuoka","LATITUDE":"33.62022506304090","LONGITUDE":"130.477201930461","NORIBA_CD":null,"COMMUNITY_TYPE":"0","NAVI_TYPE":"1","ROUTE_NUMBERS":["310"]},{"UPD_DATE":null,"JIGYOSHA_NAME":null,"TEI_KANA":"やくいんおおどおり（にしてつりょこうまえ）","UD_TYPE":"0","CITY_NAME":"福岡市中央区","TEI_CD":"D11093","JIGYOSHA_CD":"0000","TEI_NAME":"薬院大通り（西鉄旅行前）","TEI_NAME_FOREIGN":"薬院大通り（西鉄旅行前）","TEI_TYPE":"2","CITY_CD":"401331","AREA_TYPE":"fukuoka","LATITUDE":"33.58087988641430","LONGITUDE":"130.397910327274","NORIBA_CD":null,"COMMUNITY_TYPE":"0","NAVI_TYPE":"1","ROUTE_NUMBERS":["9","11","15","16","17","19","50","58","214","10","105","20","54","59"]},{"UPD_DATE":null,"JIGYOSHA_NAME":"西鉄バス","TEI_KANA":"みとまぐち","UD_TYPE":"0","CITY_NAME":"福岡市東区","TEI_CD":"660490","JIGYOSHA_CD":"0001","TEI_NAME":"三苫口","TEI_NAME_FOREIGN":"三苫口","TEI_TYPE":"0","CITY_CD":"401315","AREA_TYPE":"fukuoka","LATITUDE":"33.68987959897250","LONGITUDE":"130.419163543131","NORIBA_CD":null,"COMMUNITY_TYPE":"0","NAVI_TYPE":"1","ROUTE_NUMBERS":["21","21A","210","220"]},{"UPD_DATE":null,"JIGYOSHA_NAME":"西鉄バス","TEI_KANA":"そうじゅえんまえ","UD_TYPE":"0","CITY_NAME":"福岡市早良区","TEI_CD":"700493","JIGYOSHA_CD":"0001","TEI_NAME":"早寿園前","TEI_NAME_FOREIGN":"早寿園前","TEI_TYPE":"0","CITY_CD":"401374","AREA_TYPE":"fukuoka","LATITUDE":"33.53341488941490","LONGITUDE":"130.336430618717","NORIBA_CD":null,"COMMUNITY_TYPE":"0","NAVI_TYPE":"1","ROUTE_NUMBERS":["93"]},{"UPD_DATE":null,"JIGYOSHA_NAME":"西鉄バス","TEI_KANA":"たびいし","UD_TYPE":"0","CITY_NAME":"福岡県須恵町","TEI_CD":"591250","JIGYOSHA_CD":"0001","TEI_NAME":"旅石","TEI_NAME_FOREIGN":"旅石","TEI_TYPE":"0","CITY_CD":"403440","AREA_TYPE":"fukuoka","LATITUDE":"33.59498215576120","LONGITUDE":"130.499685225597","NORIBA_CD":null,"COMMUNITY_TYPE":"0","NAVI_TYPE":"1","ROUTE_NUMBERS":["36"]},{"UPD_DATE":null,"JIGYOSHA_NAME":"西鉄バス","TEI_KANA":"じょうやまだんち","UD_TYPE":"0","CITY_NAME":"福岡県須恵町","TEI_CD":"591150","JIGYOSHA_CD":"0001","TEI_NAME":"城山団地","TEI_NAME_FOREIGN":"城山団地","TEI_TYPE":"0","CITY_CD":"403440","AREA_TYPE":"fukuoka","LATITUDE":"33.59747705014860","LONGITUDE":"130.508916344080","NORIBA_CD":null,"COMMUNITY_TYPE":"0","NAVI_TYPE":"1","ROUTE_NUMBERS":["3","36"]},{"UPD_DATE":null,"JIGYOSHA_NAME":"西鉄バス","TEI_KANA":"あおきいっちょうめ","UD_TYPE":"0","CITY_NAME":"福岡市博多区","TEI_CD":"591666","JIGYOSHA_CD":"0001","TEI_NAME":"青木一丁目","TEI_NAME_FOREIGN":"青木一丁目","TEI_TYPE":"0","CITY_CD":"401323","AREA_TYPE":"fukuoka","LATITUDE":"33.59385250786470","LONGITUDE":"130.455675932546","NORIBA_CD":null,"COMMUNITY_TYPE":"0","NAVI_TYPE":"1","ROUTE_NUMBERS":["39B"]},{"UPD_DATE":null,"JIGYOSHA_NAME":"西鉄バス","TEI_KANA":"たかみだいいりぐち","UD_TYPE":"0","CITY_NAME":"福岡市東区","TEI_CD":"661283","JIGYOSHA_CD":"0001","TEI_NAME":"高美台入口","TEI_NAME_FOREIGN":"高美台入口","TEI_TYPE":"0","CITY_CD":"401315","AREA_TYPE":"fukuoka","LATITUDE":"33.69004497223990","LONGITUDE":"130.441545676701","NORIBA_CD":null,"COMMUNITY_TYPE":"0","NAVI_TYPE":"1","ROUTE_NUMBERS":["23"]},{"UPD_DATE":null,"JIGYOSHA_NAME":"西鉄バス","TEI_KANA":"こうえんまえ","UD_TYPE":"0","CITY_NAME":"福岡県筑紫野市","TEI_CD":"772222","JIGYOSHA_CD":"0001","TEI_NAME":"公園前","TEI_NAME_FOREIGN":"公園前","TEI_TYPE":"0","CITY_CD":"402176","AREA_TYPE":"fukuoka","LATITUDE":"33.45265925091220","LONGITUDE":"130.549618632180","NORIBA_CD":null,"COMMUNITY_TYPE":"0","NAVI_TYPE":"1","ROUTE_NUMBERS":["17"]},{"UPD_DATE":null,"JIGYOSHA_NAME":"西鉄バス","TEI_KANA":"しらきばるよんちょうめ","UD_TYPE":"0","CITY_NAME":"福岡県大野城市","TEI_CD":"770680","JIGYOSHA_CD":"0001","TEI_NAME":"白木原四丁目","TEI_NAME_FOREIGN":"白木原四丁目","TEI_TYPE":"0","CITY_CD":"402192","AREA_TYPE":"fukuoka","LATITUDE":"33.52965191903610","LONGITUDE":"130.486833301183","NORIBA_CD":null,"COMMUNITY_TYPE":"0","NAVI_TYPE":"1","ROUTE_NUMBERS":["21"]},{"UPD_DATE":null,"JIGYOSHA_NAME":"西鉄バス","TEI_KANA":"はたがさかいっちょうめ","UD_TYPE":"0","CITY_NAME":"福岡県大野城市","TEI_CD":"771014","JIGYOSHA_CD":"0001","TEI_NAME":"畑ヶ坂一丁目","TEI_NAME_FOREIGN":"畑ヶ坂一丁目","TEI_TYPE":"0","CITY_CD":"402192","AREA_TYPE":"fukuoka","LATITUDE":"33.50331139592440","LONGITUDE":"130.467339133051","NORIBA_CD":null,"COMMUNITY_TYPE":"0","NAVI_TYPE":"1","ROUTE_NUMBERS":["1","6","42"]},{"UPD_DATE":null,"JIGYOSHA_NAME":"西鉄バス","TEI_KANA":"じろうまるえきまえ","UD_TYPE":"0","CITY_NAME":"福岡市早良区","TEI_CD":"520547","JIGYOSHA_CD":"0001","TEI_NAME":"次郎丸駅前","TEI_NAME_FOREIGN":"次郎丸駅前","TEI_TYPE":"0","CITY_CD":"401374","AREA_TYPE":"fukuoka","LATITUDE":"33.55227374191460","LONGITUDE":"130.328968370061","NORIBA_CD":null,"COMMUNITY_TYPE":"0","NAVI_TYPE":"1","ROUTE_NUMBERS":["2","2-1","19","201","306"]},{"UPD_DATE":null,"JIGYOSHA_NAME":"西鉄バス","TEI_KANA":"うつくしがおかみなみ","UD_TYPE":"0","CITY_NAME":"福岡県筑紫野市","TEI_CD":"772195","JIGYOSHA_CD":"0001","TEI_NAME":"美しが丘南","TEI_NAME_FOREIGN":"美しが丘南","TEI_TYPE":"0","CITY_CD":"402176","AREA_TYPE":"fukuoka","LATITUDE":"33.447305667534","LONGITUDE":"130.540687620408","NORIBA_CD":null,"COMMUNITY_TYPE":"0","NAVI_TYPE":"1","ROUTE_NUMBERS":["17"]},{"UPD_DATE":null,"JIGYOSHA_NAME":"西鉄バス","TEI_KANA":"のけ　うめばやしほうめん","UD_TYPE":"0","CITY_NAME":"福岡市早良区","TEI_CD":"610580","JIGYOSHA_CD":"0001","TEI_NAME":"野芥（梅林方面）","TEI_NAME_FOREIGN":"野芥（梅林方面）","TEI_TYPE":"0","CITY_CD":"401374","AREA_TYPE":"fukuoka","LATITUDE":"33.54394394742420","LONGITUDE":"130.346976258082","NORIBA_CD":null,"COMMUNITY_TYPE":"0","NAVI_TYPE":"1","ROUTE_NUMBERS":["無番"]},{"UPD_DATE":null,"JIGYOSHA_NAME":"西鉄バス","TEI_KANA":"こまつがおか","UD_TYPE":"0","CITY_NAME":"福岡市城南区","TEI_CD":"610060","JIGYOSHA_CD":"0001","TEI_NAME":"小松ケ丘","TEI_NAME_FOREIGN":"小松ケ丘","TEI_TYPE":"0","CITY_CD":"401366","AREA_TYPE":"fukuoka","LATITUDE":"33.55208446179050","LONGITUDE":"130.369022052355","NORIBA_CD":null,"COMMUNITY_TYPE":"0","NAVI_TYPE":"1","ROUTE_NUMBERS":["12","16"]},{"UPD_DATE":null,"JIGYOSHA_NAME":"西鉄バス","TEI_KANA":"むしろだかいかん","UD_TYPE":"0","CITY_NAME":"福岡市博多区","TEI_CD":"591680","JIGYOSHA_CD":"0001","TEI_NAME":"席田会館","TEI_NAME_FOREIGN":"席田会館","TEI_TYPE":"0","CITY_CD":"401323","AREA_TYPE":"fukuoka","LATITUDE":"33.58407756313530","LONGITUDE":"130.456233336358","NORIBA_CD":null,"COMMUNITY_TYPE":"0","NAVI_TYPE":"1","ROUTE_NUMBERS":["1","43","37","37-1","38","39","139"]},{"UPD_DATE":null,"JIGYOSHA_NAME":"西鉄バス","TEI_KANA":"せきや　まほろば","UD_TYPE":"0","CITY_NAME":"福岡県太宰府市","TEI_CD":"770040","JIGYOSHA_CD":"0001","TEI_NAME":"関屋（まほろば）","TEI_NAME_FOREIGN":"関屋（まほろば）","TEI_TYPE":"0","CITY_CD":"402214","AREA_TYPE":"fukuoka","LATITUDE":"33.51338505306340","LONGITUDE":"130.509396176393","NORIBA_CD":null,"COMMUNITY_TYPE":"1","NAVI_TYPE":"1","ROUTE_NUMBERS":["5"]},{"UPD_DATE":null,"JIGYOSHA_NAME":"西鉄バス","TEI_KANA":"はりすり","UD_TYPE":"0","CITY_NAME":"福岡県筑紫野市","TEI_CD":"620170","JIGYOSHA_CD":"0001","TEI_NAME":"針摺","TEI_NAME_FOREIGN":"針摺","TEI_TYPE":"0","CITY_CD":"402176","AREA_TYPE":"fukuoka","LATITUDE":"33.48352372993490","LONGITUDE":"130.537041255511","NORIBA_CD":null,"COMMUNITY_TYPE":"0","NAVI_TYPE":"1","ROUTE_NUMBERS":["40","41"]},{"UPD_DATE":null,"JIGYOSHA_NAME":"西鉄バス","TEI_KANA":"ゆうせんちゅうがっこうまえ","UD_TYPE":"0","CITY_NAME":"福岡市中央区","TEI_CD":"610680","JIGYOSHA_CD":"0001","TEI_NAME":"友泉中学校前","TEI_NAME_FOREIGN":"友泉中学校前","TEI_TYPE":"0","CITY_CD":"401331","AREA_TYPE":"fukuoka","LATITUDE":"33.562979455246","LONGITUDE":"130.378112795698","NORIBA_CD":null,"COMMUNITY_TYPE":"0","NAVI_TYPE":"1","ROUTE_NUMBERS":["13","16","54","96","113"]},{"UPD_DATE":null,"JIGYOSHA_NAME":"西鉄バス","TEI_KANA":"ひがしななくま","UD_TYPE":"0","CITY_NAME":"福岡市城南区","TEI_CD":"610050","JIGYOSHA_CD":"0001","TEI_NAME":"東七隈","TEI_NAME_FOREIGN":"東七隈","TEI_TYPE":"0","CITY_CD":"401366","AREA_TYPE":"fukuoka","LATITUDE":"33.55188144867810","LONGITUDE":"130.367028227288","NORIBA_CD":null,"COMMUNITY_TYPE":"0","NAVI_TYPE":"1","ROUTE_NUMBERS":["12","16","3"]},{"UPD_DATE":null,"JIGYOSHA_NAME":"西鉄バス","TEI_KANA":"しょうだいいっちょうめ","UD_TYPE":"0","CITY_NAME":"福岡市早良区","TEI_CD":"561030","JIGYOSHA_CD":"0001","TEI_NAME":"昭代一丁目","TEI_NAME_FOREIGN":"昭代一丁目","TEI_TYPE":"0","CITY_CD":"401374","AREA_TYPE":"fukuoka","LATITUDE":"33.57519479493940","LONGITUDE":"130.357860915121","NORIBA_CD":null,"COMMUNITY_TYPE":"0","NAVI_TYPE":"1","ROUTE_NUMBERS":["7","11","69-1"]},{"UPD_DATE":null,"JIGYOSHA_NAME":"西鉄バス","TEI_KANA":"ろっぽんまつおおどおり（えふ・じー）","UD_TYPE":"0","CITY_NAME":"福岡市中央区","TEI_CD":"610140","JIGYOSHA_CD":"0001","TEI_NAME":"六本松大通り（F・G）","TEI_NAME_FOREIGN":"六本松大通り（F・G）","TEI_TYPE":"0","CITY_CD":"401331","AREA_TYPE":"fukuoka","LATITUDE":"33.57874679381230","LONGITUDE":"130.379546950558","NORIBA_CD":null,"COMMUNITY_TYPE":"0","NAVI_TYPE":"1","ROUTE_NUMBERS":["7","12","13","140","6","8","200","201","203","204","205","206","208","113","114"]},{"UPD_DATE":null,"JIGYOSHA_NAME":"西鉄バス","TEI_KANA":"じぇいえいちくしむかいざのしてんまえ　まほろば","UD_TYPE":"0","CITY_NAME":"福岡県太宰府市","TEI_CD":"771540","JIGYOSHA_CD":"0001","TEI_NAME":"ＪＡ筑紫向佐野支店前（まほろば）","TEI_NAME_FOREIGN":"ＪＡ筑紫向佐野支店前（まほろば）","TEI_TYPE":"0","CITY_CD":"402214","AREA_TYPE":"fukuoka","LATITUDE":"33.51003320578150","LONGITUDE":"130.497614309208","NORIBA_CD":null,"COMMUNITY_TYPE":"1","NAVI_TYPE":"1","ROUTE_NUMBERS":["1","2"]},{"UPD_DATE":null,"JIGYOSHA_NAME":"西鉄バス","TEI_KANA":"たろうまる","UD_TYPE":"0","CITY_NAME":"福岡県古賀市","TEI_CD":"660540","JIGYOSHA_CD":"0001","TEI_NAME":"太郎丸","TEI_NAME_FOREIGN":"太郎丸","TEI_TYPE":"0","CITY_CD":"402231","AREA_TYPE":"fukuoka","LATITUDE":"33.73469398689990","LONGITUDE":"130.486792863021","NORIBA_CD":null,"COMMUNITY_TYPE":"0","NAVI_TYPE":"1","ROUTE_NUMBERS":["2","2-1"]},{"UPD_DATE":null,"JIGYOSHA_NAME":"西鉄バス","TEI_KANA":"みどりえんまえ","UD_TYPE":"0","CITY_NAME":"福岡市南区","TEI_CD":"550250","JIGYOSHA_CD":"0001","TEI_NAME":"緑園前","TEI_NAME_FOREIGN":"緑園前","TEI_TYPE":"0","CITY_CD":"401340","AREA_TYPE":"fukuoka","LATITUDE":"33.55605183434980","LONGITUDE":"130.414645080719","NORIBA_CD":null,"COMMUNITY_TYPE":"0","NAVI_TYPE":"1","ROUTE_NUMBERS":["6","61","66","68-1","161"]},{"UPD_DATE":null,"JIGYOSHA_NAME":"西鉄バス","TEI_KANA":"めいのはましょうがっこうまえ","UD_TYPE":"0","CITY_NAME":"福岡市西区","TEI_CD":"722005","JIGYOSHA_CD":"0001","TEI_NAME":"姪浜小学校前","TEI_NAME_FOREIGN":"姪浜小学校前","TEI_TYPE":"0","CITY_CD":"401358","AREA_TYPE":"fukuoka","LATITUDE":"33.58770993629060","LONGITUDE":"130.328089811303","NORIBA_CD":null,"COMMUNITY_TYPE":"0","NAVI_TYPE":"1","ROUTE_NUMBERS":["1","1-5","304"]},{"UPD_DATE":null,"JIGYOSHA_NAME":"西鉄バス","TEI_KANA":"かしいてりはごちょうめ","UD_TYPE":"0","CITY_NAME":"福岡市東区","TEI_CD":"582472","JIGYOSHA_CD":"0001","TEI_NAME":"香椎照葉五丁目","TEI_NAME_FOREIGN":"香椎照葉五丁目","TEI_TYPE":"0","CITY_CD":"401315","AREA_TYPE":"fukuoka","LATITUDE":"33.6642727890","LONGITUDE":"130.4180840220","NORIBA_CD":null,"COMMUNITY_TYPE":"0","NAVI_TYPE":"1","ROUTE_NUMBERS":["1","22B","22N","22T","23","29","29N","220","BRT"]},{"UPD_DATE":null,"JIGYOSHA_NAME":"西鉄バス","TEI_KANA":"おおたに","UD_TYPE":"0","CITY_NAME":"福岡県宇美町","TEI_CD":"590550","JIGYOSHA_CD":"0001","TEI_NAME":"大谷","TEI_NAME_FOREIGN":"大谷","TEI_TYPE":"0","CITY_CD":"403415","AREA_TYPE":"fukuoka","LATITUDE":"33.56104902442290","LONGITUDE":"130.513376651047","NORIBA_CD":null,"COMMUNITY_TYPE":"0","NAVI_TYPE":"1","ROUTE_NUMBERS":["4-1","32","34"]},{"UPD_DATE":null,"JIGYOSHA_NAME":"西鉄バス","TEI_KANA":"あかましょうがっこう","UD_TYPE":"0","CITY_NAME":"福岡県宗像市","TEI_CD":"642830","JIGYOSHA_CD":"0001","TEI_NAME":"赤間小学校","TEI_NAME_FOREIGN":"赤間小学校","TEI_TYPE":"0","CITY_CD":"402206","AREA_TYPE":"fukuoka","LATITUDE":"33.80006569135260","LONGITUDE":"130.583925786065","NORIBA_CD":null,"COMMUNITY_TYPE":"0","NAVI_TYPE":"1","ROUTE_NUMBERS":["8"]},{"UPD_DATE":null,"JIGYOSHA_NAME":"西鉄バス","TEI_KANA":"いごう","UD_TYPE":"0","CITY_NAME":"福岡県那珂川市","TEI_CD":"571251","JIGYOSHA_CD":"0001","TEI_NAME":"井河","TEI_NAME_FOREIGN":"井河","TEI_TYPE":"0","CITY_CD":"402311","AREA_TYPE":"fukuoka","LATITUDE":"33.51908979011630","LONGITUDE":"130.414775771847","NORIBA_CD":null,"COMMUNITY_TYPE":"0","NAVI_TYPE":"1","ROUTE_NUMBERS":["4","61","66","161","610"]},{"UPD_DATE":null,"JIGYOSHA_NAME":"西鉄バス","TEI_KANA":"にしてつたかみやえき","UD_TYPE":"0","CITY_NAME":"福岡市南区","TEI_CD":"550670","JIGYOSHA_CD":"0001","TEI_NAME":"西鉄高宮駅","TEI_NAME_FOREIGN":"西鉄高宮駅","TEI_TYPE":"0","CITY_CD":"401340","AREA_TYPE":"fukuoka","LATITUDE":"33.5673396082","LONGITUDE":"130.413568650350","NORIBA_CD":null,"COMMUNITY_TYPE":"0","NAVI_TYPE":"1","ROUTE_NUMBERS":["50","51","52","52-1"]},{"UPD_DATE":null,"JIGYOSHA_NAME":"西鉄バス","TEI_KANA":"ひのでまち","UD_TYPE":"0","CITY_NAME":"福岡市東区","TEI_CD":"660670","JIGYOSHA_CD":"0001","TEI_NAME":"日出町","TEI_NAME_FOREIGN":"日出町","TEI_TYPE":"0","CITY_CD":"401315","AREA_TYPE":"fukuoka","LATITUDE":"33.648840865095","LONGITUDE":"130.354848774115","NORIBA_CD":null,"COMMUNITY_TYPE":"0","NAVI_TYPE":"1","ROUTE_NUMBERS":["1","21A","21B"]},{"UPD_DATE":null,"JIGYOSHA_NAME":"西鉄バス","TEI_KANA":"ふたまたせ","UD_TYPE":"0","CITY_NAME":"福岡市東区","TEI_CD":"590310","JIGYOSHA_CD":"0001","TEI_NAME":"二又瀬","TEI_NAME_FOREIGN":"二又瀬","TEI_TYPE":"0","CITY_CD":"401315","AREA_TYPE":"fukuoka","LATITUDE":"33.60710777487320","LONGITUDE":"130.437630820814","NORIBA_CD":null,"COMMUNITY_TYPE":"0","NAVI_TYPE":"1","ROUTE_NUMBERS":["31","36","34","38","39","73","139"]},{"UPD_DATE":null,"JIGYOSHA_NAME":"西鉄バス","TEI_KANA":"だいにこうだんじゅうたくまえ","UD_TYPE":"0","CITY_NAME":"福岡県宗像市","TEI_CD":"643650","JIGYOSHA_CD":"0001","TEI_NAME":"第二公団住宅前","TEI_NAME_FOREIGN":"第二公団住宅前","TEI_TYPE":"0","CITY_CD":"402206","AREA_TYPE":"fukuoka","LATITUDE":"33.79221777246170","LONGITUDE":"130.540512752850","NORIBA_CD":null,"COMMUNITY_TYPE":"0","NAVI_TYPE":"1","ROUTE_NUMBERS":["15","16"]},{"UPD_DATE":null,"JIGYOSHA_NAME":"西鉄バス","TEI_KANA":"おおのきたしょうがっこうまえ","UD_TYPE":"0","CITY_NAME":"福岡県大野城市","TEI_CD":"580495","JIGYOSHA_CD":"0001","TEI_NAME":"大野北小学校前","TEI_NAME_FOREIGN":"大野北小学校前","TEI_TYPE":"0","CITY_CD":"402192","AREA_TYPE":"fukuoka","LATITUDE":"33.54545201680720","LONGITUDE":"130.474682582746","NORIBA_CD":null,"COMMUNITY_TYPE":"0","NAVI_TYPE":"1","ROUTE_NUMBERS":["11","43"]},{"UPD_DATE":null,"JIGYOSHA_NAME":"西鉄バス","TEI_KANA":"かたええいぎょうしょ","UD_TYPE":"0","CITY_NAME":"福岡市城南区","TEI_CD":"610010","JIGYOSHA_CD":"0001","TEI_NAME":"片江営業所","TEI_NAME_FOREIGN":"片江営業所","TEI_TYPE":"0","CITY_CD":"401366","AREA_TYPE":"fukuoka","LATITUDE":"33.54496435638730","LONGITUDE":"130.376637747736","NORIBA_CD":null,"COMMUNITY_TYPE":"0","NAVI_TYPE":"1","ROUTE_NUMBERS":["6","64","12","13","16","95","114","140","外環","54","94","113"]},{"UPD_DATE":null,"JIGYOSHA_NAME":"西鉄バス","TEI_KANA":"むさしがおかこうみんかんまえ","UD_TYPE":"0","CITY_NAME":"福岡県筑紫野市","TEI_CD":"770385","JIGYOSHA_CD":"0001","TEI_NAME":"むさしケ丘公民館前","TEI_NAME_FOREIGN":"むさしケ丘公民館前","TEI_TYPE":"0","CITY_CD":"402176","AREA_TYPE":"fukuoka","LATITUDE":"33.47128884537080","LONGITUDE":"130.525979737537","NORIBA_CD":null,"COMMUNITY_TYPE":"0","NAVI_TYPE":"1","ROUTE_NUMBERS":["2-2","2-3"]},{"UPD_DATE":null,"JIGYOSHA_NAME":"西鉄バス","TEI_KANA":"かねのくまびょういんいりぐち","UD_TYPE":"0","CITY_NAME":"福岡市博多区","TEI_CD":"580440","JIGYOSHA_CD":"0001","TEI_NAME":"金隈病院入口","TEI_NAME_FOREIGN":"金隈病院入口","TEI_TYPE":"0","CITY_CD":"401323","AREA_TYPE":"fukuoka","LATITUDE":"33.55476206222820","LONGITUDE":"130.477042958022","NORIBA_CD":null,"COMMUNITY_TYPE":"0","NAVI_TYPE":"1","ROUTE_NUMBERS":["43"]},{"UPD_DATE":null,"JIGYOSHA_NAME":"西鉄バス","TEI_KANA":"はりすりひがし","UD_TYPE":"0","CITY_NAME":"福岡県筑紫野市","TEI_CD":"620173","JIGYOSHA_CD":"0001","TEI_NAME":"針摺東","TEI_NAME_FOREIGN":"針摺東","TEI_TYPE":"0","CITY_CD":"402176","AREA_TYPE":"fukuoka","LATITUDE":"33.48312281134740","LONGITUDE":"130.539247090779","NORIBA_CD":null,"COMMUNITY_TYPE":"0","NAVI_TYPE":"1","ROUTE_NUMBERS":["40","41","400"]},{"UPD_DATE":null,"JIGYOSHA_NAME":null,"TEI_KANA":"はかたこうこくさいたーみなる（ちゅうおうふとう）","UD_TYPE":"0","CITY_NAME":"福岡市博多区","TEI_CD":"D11108","JIGYOSHA_CD":"0000","TEI_NAME":"博多港国際ターミナル（中央ふ頭）","TEI_NAME_FOREIGN":"博多港国際ターミナル（中央ふ頭）","TEI_TYPE":"2","CITY_CD":"401323","AREA_TYPE":"fukuoka","LATITUDE":"33.60881510","LONGITUDE":"130.40004830","NORIBA_CD":null,"COMMUNITY_TYPE":"0","NAVI_TYPE":"1","ROUTE_NUMBERS":["11","19","47","50","151","152","80","BRT"]},{"UPD_DATE":null,"JIGYOSHA_NAME":"西鉄バス","TEI_KANA":"いたづけちゅうがっこうまえ","UD_TYPE":"0","CITY_NAME":"福岡市博多区","TEI_CD":"580270","JIGYOSHA_CD":"0001","TEI_NAME":"板付中学校前","TEI_NAME_FOREIGN":"板付中学校前","TEI_TYPE":"0","CITY_CD":"401323","AREA_TYPE":"fukuoka","LATITUDE":"33.55585167735330","LONGITUDE":"130.461681183630","NORIBA_CD":null,"COMMUNITY_TYPE":"0","NAVI_TYPE":"1","ROUTE_NUMBERS":["41"]},{"UPD_DATE":null,"JIGYOSHA_NAME":"西鉄バス","TEI_KANA":"さくらまち（そとかんじょう）","UD_TYPE":"0","CITY_NAME":"福岡市南区","TEI_CD":"551392","JIGYOSHA_CD":"0001","TEI_NAME":"桜町（外環状）","TEI_NAME_FOREIGN":"桜町（外環状）","TEI_TYPE":"0","CITY_CD":"401340","AREA_TYPE":"fukuoka","LATITUDE":"33.54290884200870","LONGITUDE":"130.391852578808","NORIBA_CD":null,"COMMUNITY_TYPE":"0","NAVI_TYPE":"1","ROUTE_NUMBERS":["外環"]},{"UPD_DATE":null,"JIGYOSHA_NAME":null,"TEI_KANA":"しんりんとしかねだがんかまえ","UD_TYPE":"0","CITY_NAME":"福岡県宗像市","TEI_CD":"D10019","JIGYOSHA_CD":"0000","TEI_NAME":"森林都市金田眼科前","TEI_NAME_FOREIGN":"森林都市金田眼科前","TEI_TYPE":"2","CITY_CD":"402206","AREA_TYPE":"fukuoka","LATITUDE":"33.79537305128660","LONGITUDE":"130.575796677261","NORIBA_CD":null,"COMMUNITY_TYPE":"0","NAVI_TYPE":"1","ROUTE_NUMBERS":["8-2"]},{"UPD_DATE":null,"JIGYOSHA_NAME":"西鉄バス","TEI_KANA":"うちはまにしくやくしょまえ","UD_TYPE":"0","CITY_NAME":"福岡市西区","TEI_CD":"560200","JIGYOSHA_CD":"0001","TEI_NAME":"内浜西区役所前","TEI_NAME_FOREIGN":"内浜西区役所前","TEI_TYPE":"0","CITY_CD":"401358","AREA_TYPE":"fukuoka","LATITUDE":"33.58289637383480","LONGITUDE":"130.323663400561","NORIBA_CD":null,"COMMUNITY_TYPE":"0","NAVI_TYPE":"1","ROUTE_NUMBERS":["1-4","1-7"]},{"UPD_DATE":null,"JIGYOSHA_NAME":"西鉄バス","TEI_KANA":"はなみ","UD_TYPE":"0","CITY_NAME":"福岡県古賀市","TEI_CD":"661210","JIGYOSHA_CD":"0001","TEI_NAME":"花見","TEI_NAME_FOREIGN":"花見","TEI_TYPE":"0","CITY_CD":"402231","AREA_TYPE":"fukuoka","LATITUDE":"33.74345974518610","LONGITUDE":"130.469381905350","NORIBA_CD":null,"COMMUNITY_TYPE":"0","NAVI_TYPE":"1","ROUTE_NUMBERS":["3","26A","26"]},{"UPD_DATE":null,"JIGYOSHA_NAME":"西鉄バス","TEI_KANA":"がんのすえきまえ","UD_TYPE":"0","CITY_NAME":"福岡市東区","TEI_CD":"660575","JIGYOSHA_CD":"0001","TEI_NAME":"雁の巣駅前","TEI_NAME_FOREIGN":"雁の巣駅前","TEI_TYPE":"0","CITY_CD":"401315","AREA_TYPE":"fukuoka","LATITUDE":"33.68318204822920","LONGITUDE":"130.403871121554","NORIBA_CD":null,"COMMUNITY_TYPE":"0","NAVI_TYPE":"1","ROUTE_NUMBERS":["21","21A","210","220"]},{"UPD_DATE":null,"JIGYOSHA_NAME":"西鉄バス","TEI_KANA":"けやごういっちょうめ","UD_TYPE":"0","CITY_NAME":"福岡市南区","TEI_CD":"579510","JIGYOSHA_CD":"0001","TEI_NAME":"警弥郷一丁目","TEI_NAME_FOREIGN":"警弥郷一丁目","TEI_TYPE":"0","CITY_CD":"401340","AREA_TYPE":"fukuoka","LATITUDE":"33.53404849951910","LONGITUDE":"130.432488612012","NORIBA_CD":null,"COMMUNITY_TYPE":"0","NAVI_TYPE":"1","ROUTE_NUMBERS":["49"]},{"UPD_DATE":null,"JIGYOSHA_NAME":"西鉄バス","TEI_KANA":"うえすとひるずきた","UD_TYPE":"0","CITY_NAME":"福岡市西区","TEI_CD":"560353","JIGYOSHA_CD":"0001","TEI_NAME":"ウエストヒルズ北","TEI_NAME_FOREIGN":"ウエストヒルズ北","TEI_TYPE":"0","CITY_CD":"401358","AREA_TYPE":"fukuoka","LATITUDE":"33.56671965999730","LONGITUDE":"130.298238256981","NORIBA_CD":null,"COMMUNITY_TYPE":"0","NAVI_TYPE":"1","ROUTE_NUMBERS":["1-6","506","526"]},{"UPD_DATE":null,"JIGYOSHA_NAME":null,"TEI_KANA":"てんじんしんてんちょういりぐち","UD_TYPE":"0","CITY_NAME":"福岡市中央区","TEI_CD":"D00111","JIGYOSHA_CD":"0000","TEI_NAME":"天神新天町入口（１１）","TEI_NAME_FOREIGN":"天神新天町入口（１１）","TEI_TYPE":"2","CITY_CD":"401331","AREA_TYPE":"fukuoka","LATITUDE":"33.59118378387540","LONGITUDE":"130.397885854845","NORIBA_CD":"0001","COMMUNITY_TYPE":"0","NAVI_TYPE":"1","ROUTE_NUMBERS":["3","71"]},{"UPD_DATE":null,"JIGYOSHA_NAME":"西鉄バス","TEI_KANA":"まつだ","UD_TYPE":"0","CITY_NAME":"福岡市東区","TEI_CD":"601590","JIGYOSHA_CD":"0001","TEI_NAME":"松田","TEI_NAME_FOREIGN":"松田","TEI_TYPE":"0","CITY_CD":"401315","AREA_TYPE":"fukuoka","LATITUDE":"33.61822060652410","LONGITUDE":"130.438792212652","NORIBA_CD":null,"COMMUNITY_TYPE":"0","NAVI_TYPE":"1","ROUTE_NUMBERS":["73"]},{"UPD_DATE":null,"JIGYOSHA_NAME":"西鉄バス","TEI_KANA":"さわらみょうけんにしぐち","UD_TYPE":"0","CITY_NAME":"福岡市早良区","TEI_CD":"700470","JIGYOSHA_CD":"0001","TEI_NAME":"早良妙見西口","TEI_NAME_FOREIGN":"早良妙見西口","TEI_TYPE":"0","CITY_CD":"401374","AREA_TYPE":"fukuoka","LATITUDE":"33.538168512950","LONGITUDE":"130.343986772296","NORIBA_CD":null,"COMMUNITY_TYPE":"0","NAVI_TYPE":"1","ROUTE_NUMBERS":["3","17","93","200","無番"]},{"UPD_DATE":null,"JIGYOSHA_NAME":"西鉄バス","TEI_KANA":"がんのす","UD_TYPE":"0","CITY_NAME":"福岡市東区","TEI_CD":"660555","JIGYOSHA_CD":"0001","TEI_NAME":"雁の巣","TEI_NAME_FOREIGN":"雁の巣","TEI_TYPE":"0","CITY_CD":"401315","AREA_TYPE":"fukuoka","LATITUDE":"33.684266976285","LONGITUDE":"130.406395861919","NORIBA_CD":null,"COMMUNITY_TYPE":"0","NAVI_TYPE":"1","ROUTE_NUMBERS":["21","21A","210","220"]},{"UPD_DATE":null,"JIGYOSHA_NAME":"西鉄バス","TEI_KANA":"うらのはる","UD_TYPE":"0","CITY_NAME":"福岡県那珂川市","TEI_CD":"571230","JIGYOSHA_CD":"0001","TEI_NAME":"浦の原","TEI_NAME_FOREIGN":"浦の原","TEI_TYPE":"0","CITY_CD":"402311","AREA_TYPE":"fukuoka","LATITUDE":"33.52155849619330","LONGITUDE":"130.413065800183","NORIBA_CD":null,"COMMUNITY_TYPE":"0","NAVI_TYPE":"1","ROUTE_NUMBERS":["4","61","66","68-1","161","610"]},{"UPD_DATE":null,"JIGYOSHA_NAME":"西鉄バス","TEI_KANA":"みずきがおかいりぐち　まほろば","UD_TYPE":"0","CITY_NAME":"福岡県太宰府市","TEI_CD":"772630","JIGYOSHA_CD":"0001","TEI_NAME":"水城ヶ丘入口（まほろば）","TEI_NAME_FOREIGN":"水城ヶ丘入口（まほろば）","TEI_TYPE":"0","CITY_CD":"402214","AREA_TYPE":"fukuoka","LATITUDE":"33.52591249532820","LONGITUDE":"130.496927635046","NORIBA_CD":null,"COMMUNITY_TYPE":"1","NAVI_TYPE":"1","ROUTE_NUMBERS":["4","3"]},{"UPD_DATE":null,"JIGYOSHA_NAME":"西鉄バス","TEI_KANA":"ひろひがしぐち","UD_TYPE":"0","CITY_NAME":"福岡市東区","TEI_CD":"660870","JIGYOSHA_CD":"0001","TEI_NAME":"弘東口","TEI_NAME_FOREIGN":"弘東口","TEI_TYPE":"0","CITY_CD":"401315","AREA_TYPE":"fukuoka","LATITUDE":"33.66989852197670","LONGITUDE":"130.292401990627","NORIBA_CD":null,"COMMUNITY_TYPE":"0","NAVI_TYPE":"1","ROUTE_NUMBERS":["1"]},{"UPD_DATE":null,"JIGYOSHA_NAME":"西鉄バス","TEI_KANA":"つましょうじ","UD_TYPE":"0","CITY_NAME":"福岡市博多区","TEI_CD":"722240","JIGYOSHA_CD":"0001","TEI_NAME":"対馬小路","TEI_NAME_FOREIGN":"対馬小路","TEI_TYPE":"0","CITY_CD":"401323","AREA_TYPE":"fukuoka","LATITUDE":"33.599143994985","LONGITUDE":"130.401466190960","NORIBA_CD":null,"COMMUNITY_TYPE":"0","NAVI_TYPE":"1","ROUTE_NUMBERS":["20","46","46-1","63","151","152","161","80","90"]},{"UPD_DATE":null,"JIGYOSHA_NAME":"西鉄バス","TEI_KANA":"おざさだんちひがしもん","UD_TYPE":"0","CITY_NAME":"福岡市中央区","TEI_CD":"551294","JIGYOSHA_CD":"0001","TEI_NAME":"小笹団地東門","TEI_NAME_FOREIGN":"小笹団地東門","TEI_TYPE":"0","CITY_CD":"401331","AREA_TYPE":"fukuoka","LATITUDE":"33.56951192447550","LONGITUDE":"130.387727696390","NORIBA_CD":null,"COMMUNITY_TYPE":"0","NAVI_TYPE":"1","ROUTE_NUMBERS":["56","57","57-1","58"]},{"UPD_DATE":null,"JIGYOSHA_NAME":"西鉄バス","TEI_KANA":"かんむりがおかだんち","UD_TYPE":"0","CITY_NAME":"福岡県那珂川市","TEI_CD":"570320","JIGYOSHA_CD":"0001","TEI_NAME":"冠ケ丘団地","TEI_NAME_FOREIGN":"冠ケ丘団地","TEI_TYPE":"0","CITY_CD":"402311","AREA_TYPE":"fukuoka","LATITUDE":"33.49585335058760","LONGITUDE":"130.419074484805","NORIBA_CD":null,"COMMUNITY_TYPE":"0","NAVI_TYPE":"1","ROUTE_NUMBERS":["62"]},{"UPD_DATE":null,"JIGYOSHA_NAME":"西鉄バス","TEI_KANA":"しおうでんだんち","UD_TYPE":"0","CITY_NAME":"福岡県須恵町","TEI_CD":"593960","JIGYOSHA_CD":"0001","TEI_NAME":"四王田団地","TEI_NAME_FOREIGN":"四王田団地","TEI_TYPE":"0","CITY_CD":"403440","AREA_TYPE":"fukuoka","LATITUDE":"33.595384163605","LONGITUDE":"130.502595965352","NORIBA_CD":null,"COMMUNITY_TYPE":"0","NAVI_TYPE":"1","ROUTE_NUMBERS":["3"]},{"UPD_DATE":null,"JIGYOSHA_NAME":"西鉄バス","TEI_KANA":"あおばだいいりぐち","UD_TYPE":"0","CITY_NAME":"福岡県宗像市","TEI_CD":"642949","JIGYOSHA_CD":"0001","TEI_NAME":"青葉台入口","TEI_NAME_FOREIGN":"青葉台入口","TEI_TYPE":"0","CITY_CD":"402206","AREA_TYPE":"fukuoka","LATITUDE":"33.776921062769","LONGITUDE":"130.577963346975","NORIBA_CD":null,"COMMUNITY_TYPE":"0","NAVI_TYPE":"1","ROUTE_NUMBERS":["8"]},{"UPD_DATE":null,"JIGYOSHA_NAME":"西鉄バス","TEI_KANA":"かみはんみちばし","UD_TYPE":"0","CITY_NAME":"福岡市博多区","TEI_CD":"580170","JIGYOSHA_CD":"0001","TEI_NAME":"上半道橋","TEI_NAME_FOREIGN":"上半道橋","TEI_TYPE":"0","CITY_CD":"401323","AREA_TYPE":"fukuoka","LATITUDE":"33.57988475675940","LONGITUDE":"130.441643741076","NORIBA_CD":null,"COMMUNITY_TYPE":"0","NAVI_TYPE":"1","ROUTE_NUMBERS":["41","43"]},{"UPD_DATE":null,"JIGYOSHA_NAME":"西鉄バス","TEI_KANA":"やまだにし","UD_TYPE":"0","CITY_NAME":"福岡県那珂川市","TEI_CD":"570852","JIGYOSHA_CD":"0001","TEI_NAME":"山田西","TEI_NAME_FOREIGN":"山田西","TEI_TYPE":"0","CITY_CD":"402311","AREA_TYPE":"fukuoka","LATITUDE":"33.48849690","LONGITUDE":"130.41681091200002","NORIBA_CD":null,"COMMUNITY_TYPE":"0","NAVI_TYPE":"1","ROUTE_NUMBERS":["62"]},{"UPD_DATE":null,"JIGYOSHA_NAME":"西鉄バス","TEI_KANA":"はらよんちょうめ","UD_TYPE":"0","CITY_NAME":"福岡市早良区","TEI_CD":"560330","JIGYOSHA_CD":"0001","TEI_NAME":"原四丁目","TEI_NAME_FOREIGN":"原四丁目","TEI_TYPE":"0","CITY_CD":"401374","AREA_TYPE":"fukuoka","LATITUDE":"33.567277331312","LONGITUDE":"130.340085755906","NORIBA_CD":null,"COMMUNITY_TYPE":"0","NAVI_TYPE":"1","ROUTE_NUMBERS":["2","105","202","203","204","205","206","214","2-3"]},{"UPD_DATE":null,"JIGYOSHA_NAME":"西鉄バス","TEI_KANA":"みやたけしょうがっこうにし","UD_TYPE":"0","CITY_NAME":"福岡市南区","TEI_CD":"580813","JIGYOSHA_CD":"0001","TEI_NAME":"宮竹小学校西","TEI_NAME_FOREIGN":"宮竹小学校西","TEI_TYPE":"0","CITY_CD":"401340","AREA_TYPE":"fukuoka","LATITUDE":"33.55628140","LONGITUDE":"130.44058050","NORIBA_CD":null,"COMMUNITY_TYPE":"0","NAVI_TYPE":"1","ROUTE_NUMBERS":["46-1"]},{"UPD_DATE":null,"JIGYOSHA_NAME":"西鉄バス","TEI_KANA":"ちくしじょがくえんだいがく・たんだいまえ","UD_TYPE":"0","CITY_NAME":"福岡県太宰府市","TEI_CD":"770160","JIGYOSHA_CD":"0001","TEI_NAME":"筑紫女学園大・短大前","TEI_NAME_FOREIGN":"筑紫女学園大・短大前","TEI_TYPE":"0","CITY_CD":"402214","AREA_TYPE":"fukuoka","LATITUDE":"33.514017494110","LONGITUDE":"130.538518728670","NORIBA_CD":null,"COMMUNITY_TYPE":"0","NAVI_TYPE":"1","ROUTE_NUMBERS":["1-1","1-2"]},{"UPD_DATE":null,"JIGYOSHA_NAME":"西鉄バス","TEI_KANA":"ながばる","UD_TYPE":"0","CITY_NAME":"福岡県須恵町","TEI_CD":"591070","JIGYOSHA_CD":"0001","TEI_NAME":"永原","TEI_NAME_FOREIGN":"永原","TEI_TYPE":"0","CITY_CD":"403440","AREA_TYPE":"fukuoka","LATITUDE":"33.58411372712240","LONGITUDE":"130.523092782077","NORIBA_CD":null,"COMMUNITY_TYPE":"0","NAVI_TYPE":"1","ROUTE_NUMBERS":["5"]},{"UPD_DATE":null,"JIGYOSHA_NAME":"西鉄バス","TEI_KANA":"かやば","UD_TYPE":"0","CITY_NAME":"福岡県粕屋町","TEI_CD":"591310","JIGYOSHA_CD":"0001","TEI_NAME":"萱場","TEI_NAME_FOREIGN":"萱場","TEI_TYPE":"0","CITY_CD":"403491","AREA_TYPE":"fukuoka","LATITUDE":"33.59954347386510","LONGITUDE":"130.488577938014","NORIBA_CD":null,"COMMUNITY_TYPE":"0","NAVI_TYPE":"1","ROUTE_NUMBERS":["36"]},{"UPD_DATE":null,"JIGYOSHA_NAME":"西鉄バス","TEI_KANA":"わきた","UD_TYPE":"0","CITY_NAME":"福岡県粕屋町","TEI_CD":"600750","JIGYOSHA_CD":"0001","TEI_NAME":"脇田","TEI_NAME_FOREIGN":"脇田","TEI_TYPE":"0","CITY_CD":"403491","AREA_TYPE":"fukuoka","LATITUDE":"33.628035555087","LONGITUDE":"130.495949013885","NORIBA_CD":null,"COMMUNITY_TYPE":"0","NAVI_TYPE":"1","ROUTE_NUMBERS":["74"]},{"UPD_DATE":null,"JIGYOSHA_NAME":null,"TEI_KANA":"いしまるしんまち（しんむろみ）","UD_TYPE":"0","CITY_NAME":"福岡市西区","TEI_CD":"D10035","JIGYOSHA_CD":"0000","TEI_NAME":"石丸新町（新室見）","TEI_NAME_FOREIGN":"石丸新町（新室見）","TEI_TYPE":"2","CITY_CD":"401358","AREA_TYPE":"fukuoka","LATITUDE":"33.57695599991640","LONGITUDE":"130.323130718335","NORIBA_CD":null,"COMMUNITY_TYPE":"0","NAVI_TYPE":"1","ROUTE_NUMBERS":["1","1-5","504","505","514","515","525","105"]},{"UPD_DATE":null,"JIGYOSHA_NAME":"西鉄バス","TEI_KANA":"ただごえぐち","UD_TYPE":"0","CITY_NAME":"福岡県宇美町","TEI_CD":"590645","JIGYOSHA_CD":"0001","TEI_NAME":"只越口","TEI_NAME_FOREIGN":"只越口","TEI_TYPE":"0","CITY_CD":"403415","AREA_TYPE":"fukuoka","LATITUDE":"33.54843685230070","LONGITUDE":"130.540791954981","NORIBA_CD":null,"COMMUNITY_TYPE":"0","NAVI_TYPE":"1","ROUTE_NUMBERS":["4-1"]},{"UPD_DATE":null,"JIGYOSHA_NAME":"西鉄バス","TEI_KANA":"とよはまだんち","UD_TYPE":"0","CITY_NAME":"福岡市西区","TEI_CD":"724250","JIGYOSHA_CD":"0001","TEI_NAME":"豊浜団地","TEI_NAME_FOREIGN":"豊浜団地","TEI_TYPE":"0","CITY_CD":"401358","AREA_TYPE":"fukuoka","LATITUDE":"33.58753011249060","LONGITUDE":"130.337076073282","NORIBA_CD":null,"COMMUNITY_TYPE":"0","NAVI_TYPE":"1","ROUTE_NUMBERS":["9","300","301","333","302","312"]},{"UPD_DATE":null,"JIGYOSHA_NAME":"西鉄バス","TEI_KANA":"さんのう","UD_TYPE":"0","CITY_NAME":"福岡県篠栗町","TEI_CD":"816020","JIGYOSHA_CD":"0001","TEI_NAME":"山王","TEI_NAME_FOREIGN":"山王","TEI_TYPE":"0","CITY_CD":"403423","AREA_TYPE":"fukuoka","LATITUDE":"33.62212910831330","LONGITUDE":"130.548702904695","NORIBA_CD":null,"COMMUNITY_TYPE":"0","NAVI_TYPE":"1","ROUTE_NUMBERS":["31"]},{"UPD_DATE":null,"JIGYOSHA_NAME":"西鉄バス","TEI_KANA":"かみだいおうじ","UD_TYPE":"0","CITY_NAME":"福岡県宗像市","TEI_CD":"641267","JIGYOSHA_CD":"0001","TEI_NAME":"上大王寺","TEI_NAME_FOREIGN":"上大王寺","TEI_TYPE":"0","CITY_CD":"402206","AREA_TYPE":"fukuoka","LATITUDE":"33.84235963272690","LONGITUDE":"130.553306381481","NORIBA_CD":null,"COMMUNITY_TYPE":"0","NAVI_TYPE":"1","ROUTE_NUMBERS":["2","3"]},{"UPD_DATE":null,"JIGYOSHA_NAME":"西鉄バス","TEI_KANA":"はったんだ","UD_TYPE":"0","CITY_NAME":"福岡県古賀市","TEI_CD":"632710","JIGYOSHA_CD":"0001","TEI_NAME":"八反田","TEI_NAME_FOREIGN":"八反田","TEI_TYPE":"0","CITY_CD":"402231","AREA_TYPE":"fukuoka","LATITUDE":"33.70060951340230","LONGITUDE":"130.479968999216","NORIBA_CD":null,"COMMUNITY_TYPE":"0","NAVI_TYPE":"1","ROUTE_NUMBERS":["6"]},{"UPD_DATE":null,"JIGYOSHA_NAME":"西鉄バス","TEI_KANA":"かたやまばし","UD_TYPE":"0","CITY_NAME":"福岡県久山町","TEI_CD":"600480","JIGYOSHA_CD":"0001","TEI_NAME":"片山橋","TEI_NAME_FOREIGN":"片山橋","TEI_TYPE":"0","CITY_CD":"403482","AREA_TYPE":"fukuoka","LATITUDE":"33.65347263787880","LONGITUDE":"130.484702776580","NORIBA_CD":null,"COMMUNITY_TYPE":"0","NAVI_TYPE":"1","ROUTE_NUMBERS":["27B","77"]},{"UPD_DATE":null,"JIGYOSHA_NAME":"西鉄バス","TEI_KANA":"つきのうらじどうこうえん","UD_TYPE":"0","CITY_NAME":"福岡県大野城市","TEI_CD":"770817","JIGYOSHA_CD":"0001","TEI_NAME":"月の浦児童公園","TEI_NAME_FOREIGN":"月の浦児童公園","TEI_TYPE":"0","CITY_CD":"402192","AREA_TYPE":"fukuoka","LATITUDE":"33.49884962193310","LONGITUDE":"130.452956532963","NORIBA_CD":null,"COMMUNITY_TYPE":"0","NAVI_TYPE":"1","ROUTE_NUMBERS":["1","6","20","21","23","42"]},{"UPD_DATE":null,"JIGYOSHA_NAME":"西鉄バス","TEI_KANA":"ひがしわかひさ","UD_TYPE":"0","CITY_NAME":"福岡市南区","TEI_CD":"570617","JIGYOSHA_CD":"0001","TEI_NAME":"東若久","TEI_NAME_FOREIGN":"東若久","TEI_TYPE":"0","CITY_CD":"401340","AREA_TYPE":"fukuoka","LATITUDE":"33.54815371812750","LONGITUDE":"130.416877259021","NORIBA_CD":null,"COMMUNITY_TYPE":"0","NAVI_TYPE":"1","ROUTE_NUMBERS":["7"]},{"UPD_DATE":null,"JIGYOSHA_NAME":"西鉄バス","TEI_KANA":"かわばる","UD_TYPE":"0","CITY_NAME":"福岡県古賀市","TEI_CD":"660160","JIGYOSHA_CD":"0001","TEI_NAME":"川原","TEI_NAME_FOREIGN":"川原","TEI_TYPE":"0","CITY_CD":"402231","AREA_TYPE":"fukuoka","LATITUDE":"33.71431420728880","LONGITUDE":"130.489114608625","NORIBA_CD":null,"COMMUNITY_TYPE":"0","NAVI_TYPE":"1","ROUTE_NUMBERS":["1"]},{"UPD_DATE":null,"JIGYOSHA_NAME":"西鉄バス","TEI_KANA":"はったんだ","UD_TYPE":"0","CITY_NAME":"福岡県筑紫野市","TEI_CD":"770470","JIGYOSHA_CD":"0001","TEI_NAME":"八反田","TEI_NAME_FOREIGN":"八反田","TEI_TYPE":"0","CITY_CD":"402176","AREA_TYPE":"fukuoka","LATITUDE":"33.46289045653570","LONGITUDE":"130.509541489437","NORIBA_CD":null,"COMMUNITY_TYPE":"0","NAVI_TYPE":"1","ROUTE_NUMBERS":["2-1"]},{"UPD_DATE":null,"JIGYOSHA_NAME":"西鉄バス","TEI_KANA":"ももち","UD_TYPE":"0","CITY_NAME":"福岡市早良区","TEI_CD":"724260","JIGYOSHA_CD":"0001","TEI_NAME":"百道","TEI_NAME_FOREIGN":"百道","TEI_TYPE":"0","CITY_CD":"401374","AREA_TYPE":"fukuoka","LATITUDE":"33.58461262025480","LONGITUDE":"130.348280277124","NORIBA_CD":null,"COMMUNITY_TYPE":"0","NAVI_TYPE":"1","ROUTE_NUMBERS":["1","1-5","2-9","306","312","W1","2","W2"]},{"UPD_DATE":null,"JIGYOSHA_NAME":null,"TEI_KANA":"しみずまち（のま・ながずみ・ふくだいびょういんほうめん）","UD_TYPE":"0","CITY_NAME":"福岡市南区","TEI_CD":"D11111","JIGYOSHA_CD":"0000","TEI_NAME":"清水町（野間・長住・福大病院方面）","TEI_NAME_FOREIGN":"清水町（野間・長住・福大病院方面）","TEI_TYPE":"2","CITY_CD":"401340","AREA_TYPE":"fukuoka","LATITUDE":"33.5678156229999940","LONGITUDE":"130.41874771099995","NORIBA_CD":null,"COMMUNITY_TYPE":"0","NAVI_TYPE":"1","ROUTE_NUMBERS":["6","区1","区2"]},{"UPD_DATE":null,"JIGYOSHA_NAME":"西鉄バス","TEI_KANA":"りゅうつうせんたーひがし","UD_TYPE":"0","CITY_NAME":"福岡市東区","TEI_CD":"600245","JIGYOSHA_CD":"0001","TEI_NAME":"流通センター東","TEI_NAME_FOREIGN":"流通センター東","TEI_TYPE":"0","CITY_CD":"401315","AREA_TYPE":"fukuoka","LATITUDE":"33.62786379493510","LONGITUDE":"130.451378723316","NORIBA_CD":null,"COMMUNITY_TYPE":"0","NAVI_TYPE":"1","ROUTE_NUMBERS":["73","78","79"]},{"UPD_DATE":null,"JIGYOSHA_NAME":"西鉄バス","TEI_KANA":"すなはら","UD_TYPE":"0","CITY_NAME":"福岡市博多区","TEI_CD":"591780","JIGYOSHA_CD":"0001","TEI_NAME":"砂原","TEI_NAME_FOREIGN":"砂原","TEI_TYPE":"0","CITY_CD":"401323","AREA_TYPE":"fukuoka","LATITUDE":"33.60109560435680","LONGITUDE":"130.448303211323","NORIBA_CD":null,"COMMUNITY_TYPE":"0","NAVI_TYPE":"1","ROUTE_NUMBERS":["30","32","39B","33"]},{"UPD_DATE":null,"JIGYOSHA_NAME":"西鉄バス","TEI_KANA":"ちろくじんじゃ","UD_TYPE":"0","CITY_NAME":"福岡市南区","TEI_CD":"570590","JIGYOSHA_CD":"0001","TEI_NAME":"地禄神社","TEI_NAME_FOREIGN":"地禄神社","TEI_TYPE":"0","CITY_CD":"401340","AREA_TYPE":"fukuoka","LATITUDE":"33.55323337399840","LONGITUDE":"130.428281078043","NORIBA_CD":null,"COMMUNITY_TYPE":"0","NAVI_TYPE":"1","ROUTE_NUMBERS":["3","4","62","7","外環","47","48","48-1","48-2","60","62-1"]},{"UPD_DATE":null,"JIGYOSHA_NAME":null,"TEI_KANA":"てんじんふくぎんほんてんまえ","UD_TYPE":"0","CITY_NAME":"福岡市中央区","TEI_CD":"D00110","JIGYOSHA_CD":"0000","TEI_NAME":"天神福銀本店前（１３Ａ）","TEI_NAME_FOREIGN":"天神福銀本店前（１３Ａ）","TEI_TYPE":"2","CITY_CD":"401331","AREA_TYPE":"fukuoka","LATITUDE":"33.59135376810390","LONGITUDE":"130.398023835559","NORIBA_CD":"0001","COMMUNITY_TYPE":"0","NAVI_TYPE":"1","ROUTE_NUMBERS":["3"]},{"UPD_DATE":null,"JIGYOSHA_NAME":"西鉄バス","TEI_KANA":"ふくおかじょしこうまえ","UD_TYPE":"0","CITY_NAME":"福岡市西区","TEI_CD":"722019","JIGYOSHA_CD":"0001","TEI_NAME":"福岡女子高前","TEI_NAME_FOREIGN":"福岡女子高前","TEI_TYPE":"0","CITY_CD":"401358","AREA_TYPE":"fukuoka","LATITUDE":"33.59562660","LONGITUDE":"130.33019940","NORIBA_CD":null,"COMMUNITY_TYPE":"0","NAVI_TYPE":"1","ROUTE_NUMBERS":["9","98","301","302","304","312"]},{"UPD_DATE":null,"JIGYOSHA_NAME":"西鉄バス","TEI_KANA":"めいのはまえききたぐち","UD_TYPE":"0","CITY_NAME":"福岡市西区","TEI_CD":"560210","JIGYOSHA_CD":"0001","TEI_NAME":"姪浜駅北口","TEI_NAME_FOREIGN":"姪浜駅北口","TEI_TYPE":"0","CITY_CD":"401358","AREA_TYPE":"fukuoka","LATITUDE":"33.58408926428380","LONGITUDE":"130.324696259854","NORIBA_CD":null,"COMMUNITY_TYPE":"0","NAVI_TYPE":"1","ROUTE_NUMBERS":["1","98","1-5"]},{"UPD_DATE":null,"JIGYOSHA_NAME":"西鉄バス","TEI_KANA":"おおいしした","UD_TYPE":"0","CITY_NAME":"福岡県福津市","TEI_CD":"641810","JIGYOSHA_CD":"0001","TEI_NAME":"大石下","TEI_NAME_FOREIGN":"大石下","TEI_TYPE":"0","CITY_CD":"402249","AREA_TYPE":"fukuoka","LATITUDE":"33.80452535097740","LONGITUDE":"130.477248440169","NORIBA_CD":null,"COMMUNITY_TYPE":"0","NAVI_TYPE":"1","ROUTE_NUMBERS":["1-1","1-2"]},{"UPD_DATE":null,"JIGYOSHA_NAME":"西鉄バス","TEI_KANA":"かづるがおかゆうびんきょくまえ","UD_TYPE":"0","CITY_NAME":"福岡県古賀市","TEI_CD":"632630","JIGYOSHA_CD":"0001","TEI_NAME":"花鶴丘郵便局前","TEI_NAME_FOREIGN":"花鶴丘郵便局前","TEI_TYPE":"0","CITY_CD":"402231","AREA_TYPE":"fukuoka","LATITUDE":"33.72672747313470","LONGITUDE":"130.465846969390","NORIBA_CD":null,"COMMUNITY_TYPE":"0","NAVI_TYPE":"1","ROUTE_NUMBERS":["6"]},{"UPD_DATE":null,"JIGYOSHA_NAME":"西鉄バス","TEI_KANA":"わきやまにちょうめ","UD_TYPE":"0","CITY_NAME":"福岡市早良区","TEI_CD":"701170","JIGYOSHA_CD":"0001","TEI_NAME":"脇山二丁目","TEI_NAME_FOREIGN":"脇山二丁目","TEI_TYPE":"0","CITY_CD":"401374","AREA_TYPE":"fukuoka","LATITUDE":"33.4961390110","LONGITUDE":"130.3493614550","NORIBA_CD":null,"COMMUNITY_TYPE":"0","NAVI_TYPE":"1","ROUTE_NUMBERS":["3"]},{"UPD_DATE":null,"JIGYOSHA_NAME":"西鉄バス","TEI_KANA":"はちじり","UD_TYPE":"0","CITY_NAME":"福岡市東区","TEI_CD":"660040","JIGYOSHA_CD":"0001","TEI_NAME":"八尻","TEI_NAME_FOREIGN":"八尻","TEI_TYPE":"0","CITY_CD":"401315","AREA_TYPE":"fukuoka","LATITUDE":"33.66865448286980","LONGITUDE":"130.454294602876","NORIBA_CD":null,"COMMUNITY_TYPE":"0","NAVI_TYPE":"1","ROUTE_NUMBERS":["23","23B"]},{"UPD_DATE":null,"JIGYOSHA_NAME":"西鉄バス","TEI_KANA":"ともえちょう","UD_TYPE":"0","CITY_NAME":"福岡市東区","TEI_CD":"600132","JIGYOSHA_CD":"0001","TEI_NAME":"巴町","TEI_NAME_FOREIGN":"巴町","TEI_TYPE":"0","CITY_CD":"401315","AREA_TYPE":"fukuoka","LATITUDE":"33.61163505366950","LONGITUDE":"130.424064738998","NORIBA_CD":null,"COMMUNITY_TYPE":"0","NAVI_TYPE":"1","ROUTE_NUMBERS":["71","74","77","78"]},{"UPD_DATE":null,"JIGYOSHA_NAME":"西鉄バス","TEI_KANA":"みなとゆうびんきょくまえ","UD_TYPE":"0","CITY_NAME":"福岡市中央区","TEI_CD":"511150","JIGYOSHA_CD":"0001","TEI_NAME":"港郵便局前","TEI_NAME_FOREIGN":"港郵便局前","TEI_TYPE":"0","CITY_CD":"401331","AREA_TYPE":"fukuoka","LATITUDE":"33.59559696367070","LONGITUDE":"130.377953307013","NORIBA_CD":null,"COMMUNITY_TYPE":"0","NAVI_TYPE":"1","ROUTE_NUMBERS":["68"]},{"UPD_DATE":null,"JIGYOSHA_NAME":"西鉄バス","TEI_KANA":"ながおごちょうめ","UD_TYPE":"0","CITY_NAME":"福岡市城南区","TEI_CD":"550660","JIGYOSHA_CD":"0001","TEI_NAME":"長尾五丁目","TEI_NAME_FOREIGN":"長尾五丁目","TEI_TYPE":"0","CITY_CD":"401366","AREA_TYPE":"fukuoka","LATITUDE":"33.558314966637","LONGITUDE":"130.378826951172","NORIBA_CD":null,"COMMUNITY_TYPE":"0","NAVI_TYPE":"1","ROUTE_NUMBERS":["13","16","54","96","113"]},{"UPD_DATE":null,"JIGYOSHA_NAME":"西鉄バス","TEI_KANA":"かみおおりにちょうめ","UD_TYPE":"0","CITY_NAME":"福岡県大野城市","TEI_CD":"770723","JIGYOSHA_CD":"0001","TEI_NAME":"上大利二丁目","TEI_NAME_FOREIGN":"上大利二丁目","TEI_TYPE":"0","CITY_CD":"402192","AREA_TYPE":"fukuoka","LATITUDE":"33.51728212536770","LONGITUDE":"130.480149425862","NORIBA_CD":null,"COMMUNITY_TYPE":"0","NAVI_TYPE":"1","ROUTE_NUMBERS":["20"]},{"UPD_DATE":null,"JIGYOSHA_NAME":"西鉄バス","TEI_KANA":"うまやだに","UD_TYPE":"0","CITY_NAME":"福岡市中央区","TEI_CD":"551291","JIGYOSHA_CD":"0001","TEI_NAME":"馬屋谷","TEI_NAME_FOREIGN":"馬屋谷","TEI_TYPE":"0","CITY_CD":"401331","AREA_TYPE":"fukuoka","LATITUDE":"33.57609317873920","LONGITUDE":"130.385334592090","NORIBA_CD":null,"COMMUNITY_TYPE":"0","NAVI_TYPE":"1","ROUTE_NUMBERS":["57","58-1"]},{"UPD_DATE":null,"JIGYOSHA_NAME":"西鉄バス","TEI_KANA":"はこざき","UD_TYPE":"0","CITY_NAME":"福岡市東区","TEI_CD":"720430","JIGYOSHA_CD":"0001","TEI_NAME":"箱崎","TEI_NAME_FOREIGN":"箱崎","TEI_TYPE":"0","CITY_CD":"401315","AREA_TYPE":"fukuoka","LATITUDE":"33.61558256440410","LONGITUDE":"130.420226875959","NORIBA_CD":null,"COMMUNITY_TYPE":"0","NAVI_TYPE":"1","ROUTE_NUMBERS":["9","29","54-1","59","61","161","1"]},{"UPD_DATE":null,"JIGYOSHA_NAME":"西鉄バス","TEI_KANA":"あかさかさんちょうめ","UD_TYPE":"0","CITY_NAME":"福岡市中央区","TEI_CD":"610160","JIGYOSHA_CD":"0001","TEI_NAME":"赤坂三丁目","TEI_NAME_FOREIGN":"赤坂三丁目","TEI_TYPE":"0","CITY_CD":"401331","AREA_TYPE":"fukuoka","LATITUDE":"33.58320740062280","LONGITUDE":"130.384351346161","NORIBA_CD":null,"COMMUNITY_TYPE":"0","NAVI_TYPE":"1","ROUTE_NUMBERS":["7","12","6","6-1","8","200","201","203","204","205","206","208","113","114","202"]},{"UPD_DATE":null,"JIGYOSHA_NAME":"西鉄バス","TEI_KANA":"なかがわ","UD_TYPE":"0","CITY_NAME":"福岡県古賀市","TEI_CD":"661175","JIGYOSHA_CD":"0001","TEI_NAME":"中川","TEI_NAME_FOREIGN":"中川","TEI_TYPE":"0","CITY_CD":"402231","AREA_TYPE":"fukuoka","LATITUDE":"33.73718335888010","LONGITUDE":"130.466082468373","NORIBA_CD":null,"COMMUNITY_TYPE":"0","NAVI_TYPE":"1","ROUTE_NUMBERS":["3","26A","26"]},{"UPD_DATE":null,"JIGYOSHA_NAME":"西鉄バス","TEI_KANA":"じどうしゃめんきょしけんじょうまえ","UD_TYPE":"0","CITY_NAME":"福岡市南区","TEI_CD":"551180","JIGYOSHA_CD":"0001","TEI_NAME":"自動車免許試験場前","TEI_NAME_FOREIGN":"自動車免許試験場前","TEI_TYPE":"0","CITY_CD":"401340","AREA_TYPE":"fukuoka","LATITUDE":"33.53966636046630","LONGITUDE":"130.401678912045","NORIBA_CD":null,"COMMUNITY_TYPE":"0","NAVI_TYPE":"1","ROUTE_NUMBERS":["50","51","65","67","96","151","区1","区2"]},{"UPD_DATE":null,"JIGYOSHA_NAME":"西鉄バス","TEI_KANA":"ふくだいだいにきねんかいどうまえ","UD_TYPE":"0","CITY_NAME":"福岡市城南区","TEI_CD":"610510","JIGYOSHA_CD":"0001","TEI_NAME":"福大第二記念会堂前","TEI_NAME_FOREIGN":"福大第二記念会堂前","TEI_TYPE":"0","CITY_CD":"401366","AREA_TYPE":"fukuoka","LATITUDE":"33.54422814902470","LONGITUDE":"130.360258141947","NORIBA_CD":null,"COMMUNITY_TYPE":"0","NAVI_TYPE":"1","ROUTE_NUMBERS":["6","64","無番","95","114","140"]},{"UPD_DATE":null,"JIGYOSHA_NAME":"西鉄バス","TEI_KANA":"じゆうがおかみなみにしどおり","UD_TYPE":"0","CITY_NAME":"福岡県宗像市","TEI_CD":"642945","JIGYOSHA_CD":"0001","TEI_NAME":"自由ケ丘南西通り","TEI_NAME_FOREIGN":"自由ケ丘南西通り","TEI_TYPE":"0","CITY_CD":"402206","AREA_TYPE":"fukuoka","LATITUDE":"33.77848005575960","LONGITUDE":"130.587108515691","NORIBA_CD":null,"COMMUNITY_TYPE":"0","NAVI_TYPE":"1","ROUTE_NUMBERS":["8","8-1"]},{"UPD_DATE":null,"JIGYOSHA_NAME":"西鉄バス","TEI_KANA":"やくいんおおどおり（にっさんまえ）","UD_TYPE":"0","CITY_NAME":"福岡市中央区","TEI_CD":"559021","JIGYOSHA_CD":"0001","TEI_NAME":"薬院大通り（日産前）","TEI_NAME_FOREIGN":"薬院大通り（日産前）","TEI_TYPE":"0","CITY_CD":"401331","AREA_TYPE":"fukuoka","LATITUDE":"33.58033294170260","LONGITUDE":"130.397726367737","NORIBA_CD":null,"COMMUNITY_TYPE":"0","NAVI_TYPE":"1","ROUTE_NUMBERS":["51","52","52-1","50","54","54-1","59"]},{"UPD_DATE":null,"JIGYOSHA_NAME":"西鉄バス","TEI_KANA":"みなみやまてよつかど","UD_TYPE":"0","CITY_NAME":"福岡県大野城市","TEI_CD":"770896","JIGYOSHA_CD":"0001","TEI_NAME":"南山手四角","TEI_NAME_FOREIGN":"南山手四角","TEI_TYPE":"0","CITY_CD":"402192","AREA_TYPE":"fukuoka","LATITUDE":"33.49337368315560","LONGITUDE":"130.480179524268","NORIBA_CD":null,"COMMUNITY_TYPE":"0","NAVI_TYPE":"1","ROUTE_NUMBERS":["23"]},{"UPD_DATE":null,"JIGYOSHA_NAME":"西鉄バス","TEI_KANA":"あみやたてすじ","UD_TYPE":"0","CITY_NAME":"福岡市東区","TEI_CD":"680182","JIGYOSHA_CD":"0001","TEI_NAME":"網屋立筋","TEI_NAME_FOREIGN":"網屋立筋","TEI_TYPE":"0","CITY_CD":"401315","AREA_TYPE":"fukuoka","LATITUDE":"33.62043801636150","LONGITUDE":"130.418583788838","NORIBA_CD":null,"COMMUNITY_TYPE":"0","NAVI_TYPE":"1","ROUTE_NUMBERS":["4","21","20","22","22-1","23","23-1","27","23-2","29","4-3","26"]},{"UPD_DATE":null,"JIGYOSHA_NAME":null,"TEI_KANA":"てんじんこうそくばすたーみなるまえ","UD_TYPE":"0","CITY_NAME":"福岡市中央区","TEI_CD":"D11124","JIGYOSHA_CD":"0000","TEI_NAME":"天神高速バスターミナル前（１）","TEI_NAME_FOREIGN":"天神高速バスターミナル前（１）","TEI_TYPE":"2","CITY_CD":"401331","AREA_TYPE":"fukuoka","LATITUDE":"33.58831184785310","LONGITUDE":"130.40038637812702","NORIBA_CD":"0001","COMMUNITY_TYPE":"0","NAVI_TYPE":"1","ROUTE_NUMBERS":["300","301","302","304","333","W1","W2","1","7","44","46","54","55","59","151","152","206","610","620","630","W3","68","68-1"]},{"UPD_DATE":null,"JIGYOSHA_NAME":"西鉄バス","TEI_KANA":"たむらななちょうめ","UD_TYPE":"0","CITY_NAME":"福岡市早良区","TEI_CD":"520630","JIGYOSHA_CD":"0001","TEI_NAME":"田村七丁目","TEI_NAME_FOREIGN":"田村七丁目","TEI_TYPE":"0","CITY_CD":"401374","AREA_TYPE":"fukuoka","LATITUDE":"33.53659534786450","LONGITUDE":"130.324902429673","NORIBA_CD":null,"COMMUNITY_TYPE":"0","NAVI_TYPE":"1","ROUTE_NUMBERS":["2","2-1","19","201","306"]},{"UPD_DATE":null,"JIGYOSHA_NAME":"西鉄バス","TEI_KANA":"うめがおかこうみんかんまえ　まほろば","UD_TYPE":"0","CITY_NAME":"福岡県太宰府市","TEI_CD":"771740","JIGYOSHA_CD":"0001","TEI_NAME":"梅ヶ丘公民館前（まほろば）","TEI_NAME_FOREIGN":"梅ヶ丘公民館前（まほろば）","TEI_TYPE":"0","CITY_CD":"402214","AREA_TYPE":"fukuoka","LATITUDE":"33.49513657959090","LONGITUDE":"130.542295284435","NORIBA_CD":null,"COMMUNITY_TYPE":"1","NAVI_TYPE":"1","ROUTE_NUMBERS":["7"]},{"UPD_DATE":null,"JIGYOSHA_NAME":"西鉄バス","TEI_KANA":"かなたけのさとこうえんいりぐち","UD_TYPE":"0","CITY_NAME":"福岡市西区","TEI_CD":"520820","JIGYOSHA_CD":"0001","TEI_NAME":"かなたけの里公園入口","TEI_NAME_FOREIGN":"かなたけの里公園入口","TEI_TYPE":"0","CITY_CD":"401358","AREA_TYPE":"fukuoka","LATITUDE":"33.52962695568750","LONGITUDE":"130.317029404392","NORIBA_CD":null,"COMMUNITY_TYPE":"0","NAVI_TYPE":"1","ROUTE_NUMBERS":["1","2","2-1","306"]},{"UPD_DATE":null,"JIGYOSHA_NAME":"西鉄バス","TEI_KANA":"こうらんたんだい","UD_TYPE":"0","CITY_NAME":"福岡市南区","TEI_CD":"581050","JIGYOSHA_CD":"0001","TEI_NAME":"香蘭短大","TEI_NAME_FOREIGN":"香蘭短大","TEI_TYPE":"0","CITY_CD":"401340","AREA_TYPE":"fukuoka","LATITUDE":"33.55358146466870","LONGITUDE":"130.435603453898","NORIBA_CD":null,"COMMUNITY_TYPE":"0","NAVI_TYPE":"1","ROUTE_NUMBERS":["42","49"]},{"UPD_DATE":null,"JIGYOSHA_NAME":"西鉄バス","TEI_KANA":"むしろだ","UD_TYPE":"0","CITY_NAME":"福岡市博多区","TEI_CD":"591672","JIGYOSHA_CD":"0001","TEI_NAME":"席田","TEI_NAME_FOREIGN":"席田","TEI_TYPE":"0","CITY_CD":"401323","AREA_TYPE":"fukuoka","LATITUDE":"33.58299169135060","LONGITUDE":"130.456924328973","NORIBA_CD":null,"COMMUNITY_TYPE":"0","NAVI_TYPE":"1","ROUTE_NUMBERS":["37","39","43"]},{"UPD_DATE":null,"JIGYOSHA_NAME":"西鉄バス","TEI_KANA":"うみはちまんまえ","UD_TYPE":"0","CITY_NAME":"福岡県宇美町","TEI_CD":"590050","JIGYOSHA_CD":"0001","TEI_NAME":"宇美八幡前","TEI_NAME_FOREIGN":"宇美八幡前","TEI_TYPE":"0","CITY_CD":"403415","AREA_TYPE":"fukuoka","LATITUDE":"33.56963901408670","LONGITUDE":"130.508135690763","NORIBA_CD":null,"COMMUNITY_TYPE":"0","NAVI_TYPE":"1","ROUTE_NUMBERS":["2","3","32","33","34","36","37","37-1","370"]},{"UPD_DATE":null,"JIGYOSHA_NAME":"西鉄バス","TEI_KANA":"ひろ","UD_TYPE":"0","CITY_NAME":"福岡市東区","TEI_CD":"660890","JIGYOSHA_CD":"0001","TEI_NAME":"弘","TEI_NAME_FOREIGN":"弘","TEI_TYPE":"0","CITY_CD":"401315","AREA_TYPE":"fukuoka","LATITUDE":"33.67082240046920","LONGITUDE":"130.291103055961","NORIBA_CD":null,"COMMUNITY_TYPE":"0","NAVI_TYPE":"1","ROUTE_NUMBERS":["1"]},{"UPD_DATE":null,"JIGYOSHA_NAME":"西鉄バス","TEI_KANA":"しみずよんちょうめ","UD_TYPE":"0","CITY_NAME":"福岡市南区","TEI_CD":"571460","JIGYOSHA_CD":"0001","TEI_NAME":"清水四丁目","TEI_NAME_FOREIGN":"清水四丁目","TEI_TYPE":"0","CITY_CD":"401340","AREA_TYPE":"fukuoka","LATITUDE":"33.56811374530990","LONGITUDE":"130.426158569122","NORIBA_CD":null,"COMMUNITY_TYPE":"0","NAVI_TYPE":"1","ROUTE_NUMBERS":["47","48","63"]},{"UPD_DATE":null,"JIGYOSHA_NAME":"西鉄バス","TEI_KANA":"はまのまちびょういんいりぐち","UD_TYPE":"0","CITY_NAME":"福岡市中央区","TEI_CD":"650055","JIGYOSHA_CD":"0001","TEI_NAME":"浜の町病院入口","TEI_NAME_FOREIGN":"浜の町病院入口","TEI_TYPE":"0","CITY_CD":"401331","AREA_TYPE":"fukuoka","LATITUDE":"33.59706897569880","LONGITUDE":"130.394463066078","NORIBA_CD":null,"COMMUNITY_TYPE":"0","NAVI_TYPE":"1","ROUTE_NUMBERS":["7","55","61","161","204","205","206","208","W3"]},